time_s,time_us,time_steady,iTOW,fTOW,week,gpsFix,flags,ecefX,ecefY,ecefZ,pAcc,ecefVX,ecefVY,ecefVZ,sAcc,pDOP,reserved1,numSV,seq,srcSystem,srcComponent,time_gregorian,lat,lon,h
315964806,133000,6134,6000,0,0,0,64,637813700,0,0,649519040,0,0,0,2000,9999,0,0,90,11,0,1980-01-06T03:00:06,0.0,0.0,0.0
315964807,121000,7122,7000,0,0,0,64,637813700,0,0,649519040,0,0,0,2031,9999,0,0,114,11,0,1980-01-06T03:00:07,0.0,0.0,0.0
315964808,95000,8095,8000,0,0,0,64,637813700,0,0,649519040,0,0,0,2062,9999,0,0,140,11,0,1980-01-06T03:00:08,0.0,0.0,0.0
315964809,117000,9117,9000,0,0,0,64,637813700,0,0,649519040,0,0,0,2092,9999,0,0,167,11,0,1980-01-06T03:00:09,0.0,0.0,0.0
315964810,90000,10091,10000,0,0,0,64,637813700,0,0,649519040,0,0,0,2121,9999,0,0,193,11,0,1980-01-06T03:00:10,0.0,0.0,0.0
315964811,100000,11100,11000,0,0,0,64,637813700,0,0,649519040,0,0,0,2151,9999,0,0,215,11,0,1980-01-06T03:00:11,0.0,0.0,0.0
315964812,122000,12122,12000,0,0,0,64,637813700,0,0,649519040,0,0,0,2179,9999,0,0,241,11,0,1980-01-06T03:00:12,0.0,0.0,0.0
315964813,96000,13096,13000,0,0,0,64,637813700,0,0,649519040,0,0,0,2208,9999,0,0,11,11,0,1980-01-06T03:00:13,0.0,0.0,0.0
315964814,117000,14118,14000,0,0,0,64,637813700,0,0,649519040,0,0,0,2236,9999,0,0,38,11,0,1980-01-06T03:00:14,0.0,0.0,0.0
315964815,91000,15092,15000,0,0,0,64,637813700,0,0,649519040,0,0,0,2264,9999,0,0,64,11,0,1980-01-06T03:00:15,0.0,0.0,0.0
315964816,113000,16114,16000,0,0,0,64,637813700,0,0,649519040,0,0,0,2291,9999,0,0,90,11,0,1980-01-06T03:00:16,0.0,0.0,0.0
315964817,123000,17123,17000,0,0,0,64,637813700,0,0,649519040,0,0,0,2318,9999,0,0,112,11,0,1980-01-06T03:00:17,0.0,0.0,0.0
315964818,97000,18097,18000,0,0,0,64,637813700,0,0,649519040,0,0,0,2345,9999,0,0,138,11,0,1980-01-06T03:00:18,0.0,0.0,0.0
315964819,119000,19119,19000,0,0,0,64,637813700,0,0,649519040,0,0,0,2372,9999,0,0,165,11,0,1980-01-06T03:00:19,0.0,0.0,0.0
315964820,92000,20093,20000,0,0,0,64,637813700,0,0,649519040,0,0,0,2398,9999,0,0,191,11,0,1980-01-06T03:00:20,0.0,0.0,0.0
315964821,114000,21114,21000,0,0,0,64,637813700,0,0,649519040,0,0,0,2424,9999,0,0,218,11,0,1980-01-06T03:00:21,0.0,0.0,0.0
315964822,88000,22088,22000,0,0,0,64,637813700,0,0,649519040,0,0,0,2449,9999,0,0,243,11,0,1980-01-06T03:00:22,0.0,0.0,0.0
315964823,97000,23097,23000,0,0,0,64,637813700,0,0,649519040,0,0,0,2475,9999,0,0,9,11,0,1980-01-06T03:00:23,0.0,0.0,0.0
315964824,118000,24119,24000,0,0,0,64,637813700,0,0,649519040,0,0,0,2500,9999,0,0,36,11,0,1980-01-06T03:00:24,0.0,0.0,0.0
315964825,92000,25093,25000,0,0,0,64,637813700,0,0,649519040,0,0,0,2525,9999,0,0,62,11,0,1980-01-06T03:00:25,0.0,0.0,0.0
315964830,90000,30090,30000,0,0,0,64,637813700,0,0,649519040,0,0,0,2646,9999,0,0,189,11,0,1980-01-06T03:00:30,0.0,0.0,0.0
315964831,111000,31112,31000,0,0,0,64,637813700,0,0,649519040,0,0,0,2669,9999,0,0,216,11,0,1980-01-06T03:00:31,0.0,0.0,0.0
315964832,85000,32085,32000,0,0,0,64,637813700,0,0,649519040,0,0,0,2693,9999,0,0,242,11,0,1980-01-06T03:00:32,0.0,0.0,0.0
315964833,106000,33107,33000,0,0,0,64,637813700,0,0,649519040,0,0,0,2716,9999,0,0,12,11,0,1980-01-06T03:00:33,0.0,0.0,0.0
315964834,116000,34116,34000,0,0,0,64,637813700,0,0,649519040,0,0,0,2739,9999,0,0,34,11,0,1980-01-06T03:00:34,0.0,0.0,0.0
315964835,89000,35090,35000,0,0,0,64,637813700,0,0,649519040,0,0,0,2761,9999,0,0,60,11,0,1980-01-06T03:00:35,0.0,0.0,0.0
315964836,111000,36111,36000,0,0,0,64,637813700,0,0,649519040,0,0,0,2784,9999,0,0,87,11,0,1980-01-06T03:00:36,0.0,0.0,0.0
315964837,85000,37085,37000,0,0,0,64,637813700,0,0,649519040,0,0,0,2806,9999,0,0,113,11,0,1980-01-06T03:00:37,0.0,0.0,0.0
315964838,106000,38107,38000,0,0,0,64,637813700,0,0,649519040,0,0,0,2828,9999,0,0,140,11,0,1980-01-06T03:00:38,0.0,0.0,0.0
315964839,128000,39128,39000,0,0,0,64,637813700,0,0,649519040,0,0,0,2850,9999,0,0,166,11,0,1980-01-06T03:00:39,0.0,0.0,0.0
315964840,89000,40089,40000,0,0,0,64,637813700,0,0,649519040,0,0,0,2872,9999,0,0,187,11,0,1980-01-06T03:00:40,0.0,0.0,0.0
315964841,111000,41111,41000,0,0,0,64,637813700,0,0,649519040,0,0,0,2894,9999,0,0,214,11,0,1980-01-06T03:00:41,0.0,0.0,0.0
315964842,84000,42085,42000,0,0,0,64,637813700,0,0,649519040,0,0,0,2915,9999,0,0,240,11,0,1980-01-06T03:00:42,0.0,0.0,0.0
315964843,106000,43106,43000,0,0,0,64,637813700,0,0,649519040,0,0,0,2937,9999,0,0,11,11,0,1980-01-06T03:00:43,0.0,0.0,0.0
315964844,128000,44128,44000,0,0,0,64,637813700,0,0,649519040,0,0,0,2958,9999,0,0,38,11,0,1980-01-06T03:00:44,0.0,0.0,0.0
315964845,89000,45089,45000,0,0,0,64,637813700,0,0,649519040,0,0,0,2979,9999,0,0,59,11,0,1980-01-06T03:00:45,0.0,0.0,0.0
315964846,110000,46111,46000,0,0,0,64,637813700,0,0,649519040,0,0,0,3000,9999,0,0,85,11,0,1980-01-06T03:00:46,0.0,0.0,0.0
315964847,84000,47084,47000,0,0,0,64,637813700,0,0,649519040,0,0,0,3021,9999,0,0,111,11,0,1980-01-06T03:00:47,0.0,0.0,0.0
315964848,106000,48106,48000,0,0,0,64,637813700,0,0,649519040,0,0,0,3041,9999,0,0,138,11,0,1980-01-06T03:00:48,0.0,0.0,0.0
315964849,127000,49128,49000,0,0,0,64,637813700,0,0,649519040,0,0,0,3062,9999,0,0,165,11,0,1980-01-06T03:00:49,0.0,0.0,0.0
315964850,101000,50101,50000,0,0,0,64,637813700,0,0,649519040,0,0,0,3082,9999,0,0,190,11,0,1980-01-06T03:00:50,0.0,0.0,0.0
315964851,110000,51110,51000,0,0,0,64,637813700,0,0,649519040,0,0,0,3102,9999,0,0,212,11,0,1980-01-06T03:00:51,0.0,0.0,0.0
315964852,84000,52084,52000,0,0,0,64,637813700,0,0,649519040,0,0,0,3122,9999,0,0,238,11,0,1980-01-06T03:00:52,0.0,0.0,0.0
315964853,105000,53106,53000,0,0,0,64,637813700,0,0,649519040,0,0,0,3142,9999,0,0,9,11,0,1980-01-06T03:00:53,0.0,0.0,0.0
315964854,127000,54127,54000,0,0,0,64,637813700,0,0,649519040,0,0,0,3162,9999,0,0,36,11,0,1980-01-06T03:00:54,0.0,0.0,0.0
315964855,101000,55101,55000,0,0,0,64,637813700,0,0,649519040,0,0,0,3182,9999,0,0,62,11,0,1980-01-06T03:00:55,0.0,0.0,0.0
315964856,122000,56122,56000,0,0,0,64,637813700,0,0,649519040,0,0,0,3202,9999,0,0,88,11,0,1980-01-06T03:00:56,0.0,0.0,0.0
315964857,84000,57084,57000,0,0,0,64,637813700,0,0,649519040,0,0,0,3221,9999,0,0,109,11,0,1980-01-06T03:00:57,0.0,0.0,0.0
315964862,82000,62081,62000,0,0,0,64,637813700,0,0,649519104,0,0,0,3317,9999,0,0,237,11,0,1980-01-06T03:01:02,0.0,0.0,0.0
315964863,105000,63103,63000,0,0,0,64,637813700,0,0,649519104,0,0,0,3335,9999,0,0,7,11,0,1980-01-06T03:01:03,0.0,0.0,0.0
315964864,127000,64124,64000,0,0,0,64,637813700,0,0,649519104,0,0,0,3354,9999,0,0,34,11,0,1980-01-06T03:01:04,0.0,0.0,0.0
315964865,102000,65098,65000,0,0,0,64,637813700,0,0,649519104,0,0,0,3373,9999,0,0,60,11,0,1980-01-06T03:01:05,0.0,0.0,0.0
315964866,124000,66120,66000,0,0,0,64,637813700,0,0,649519104,0,0,0,3391,9999,0,0,87,11,0,1980-01-06T03:01:06,0.0,0.0,0.0
315964867,99000,67093,67000,0,0,0,64,637813700,0,0,649519104,0,0,0,3410,9999,0,0,112,11,0,1980-01-06T03:01:07,0.0,0.0,0.0
315964868,109000,68103,68000,0,0,0,64,637813700,0,0,649519104,0,0,0,3428,9999,0,0,134,11,0,1980-01-06T03:01:08,0.0,0.0,0.0
315964869,132000,69124,69000,0,0,0,64,637813700,0,0,649519104,0,0,0,3446,9999,0,0,161,11,0,1980-01-06T03:01:09,0.0,0.0,0.0
315964870,106000,70098,70000,0,0,0,64,637813700,0,0,649519104,0,0,0,3464,9999,0,0,187,11,0,1980-01-06T03:01:10,0.0,0.0,0.0
315964871,129000,71119,71000,0,0,0,64,637813700,0,0,649519104,0,0,0,3482,9999,0,0,214,11,0,1980-01-06T03:01:11,0.0,0.0,0.0
315964872,104000,72093,72000,0,0,0,64,637813700,0,0,649519104,0,0,0,3500,9999,0,0,240,11,0,1980-01-06T03:01:12,0.0,0.0,0.0
315964873,126000,73115,73000,0,0,0,64,637813700,0,0,649519104,0,0,0,3518,9999,0,0,10,11,0,1980-01-06T03:01:13,0.0,0.0,0.0
315964874,136000,74124,74000,0,0,0,64,637813700,0,0,649519104,0,0,0,3536,9999,0,0,32,11,0,1980-01-06T03:01:14,0.0,0.0,0.0
315964875,111000,75097,75000,0,0,0,64,637813700,0,0,649519104,0,0,0,3553,9999,0,0,58,11,0,1980-01-06T03:01:15,0.0,0.0,0.0
315964876,134000,76119,76000,0,0,0,64,637813700,0,0,649519104,0,0,0,3571,9999,0,0,85,11,0,1980-01-06T03:01:16,0.0,0.0,0.0
315964877,108000,77093,77000,0,0,0,64,637813700,0,0,649519104,0,0,0,3588,9999,0,0,111,11,0,1980-01-06T03:01:17,0.0,0.0,0.0
315964878,131000,78114,78000,0,0,0,64,637813700,0,0,649519104,0,0,0,3606,9999,0,0,138,11,0,1980-01-06T03:01:18,0.0,0.0,0.0
315964879,153000,79136,79000,0,0,0,64,637813700,0,0,649519104,0,0,0,3623,9999,0,0,164,11,0,1980-01-06T03:01:19,0.0,0.0,0.0
315964880,116000,80097,80000,0,0,0,64,637813700,0,0,649519104,0,0,0,3640,9999,0,0,185,11,0,1980-01-06T03:01:20,0.0,0.0,0.0
315964881,138000,81119,81000,0,0,0,64,637813700,0,0,649519104,0,0,0,3657,9999,0,0,212,11,0,1980-01-06T03:01:21,0.0,0.0,0.0
315964882,113000,82092,82000,0,0,0,64,637813700,0,0,649519104,0,0,0,3674,9999,0,0,238,11,0,1980-01-06T03:01:22,0.0,0.0,0.0
315964883,136000,83114,83000,0,0,0,64,637813700,0,0,649519104,0,0,0,3691,9999,0,0,9,11,0,1980-01-06T03:01:23,0.0,0.0,0.0
315964884,110000,84088,84000,0,0,0,64,637813700,0,0,649519104,0,0,0,3708,9999,0,0,34,11,0,1980-01-06T03:01:24,0.0,0.0,0.0
315964885,121000,85097,85000,0,0,0,64,637813700,0,0,649519104,0,0,0,3725,9999,0,0,56,11,0,1980-01-06T03:01:25,0.0,0.0,0.0
315964886,143000,86119,86000,0,0,0,64,637813700,0,0,649519104,0,0,0,3742,9999,0,0,83,11,0,1980-01-06T03:01:26,0.0,0.0,0.0
315964887,118000,87092,87000,0,0,0,64,637813700,0,0,649519104,0,0,0,3758,9999,0,0,109,11,0,1980-01-06T03:01:27,0.0,0.0,0.0
315964888,140000,88114,88000,0,0,0,64,637813700,0,0,649519104,0,0,0,3775,9999,0,0,136,11,0,1980-01-06T03:01:28,0.0,0.0,0.0
315964889,115000,89087,89000,0,0,0,64,637813700,0,0,649519104,0,0,0,3791,9999,0,0,162,11,0,1980-01-06T03:01:29,0.0,0.0,0.0
315964890,138000,90109,90000,0,0,0,64,637813700,0,0,649519104,0,0,0,3808,9999,0,0,188,11,0,1980-01-06T03:01:30,0.0,0.0,0.0
315964891,148000,91118,91000,0,0,0,64,637813700,0,0,649519104,0,0,0,3824,9999,0,0,210,11,0,1980-01-06T03:01:31,0.0,0.0,0.0
315964892,123000,92092,92000,0,0,0,64,637813700,0,0,649519104,0,0,0,3841,9999,0,0,236,11,0,1980-01-06T03:01:32,0.0,0.0,0.0
315964893,145000,93113,93000,0,0,0,64,637813700,0,0,649519168,0,0,0,3857,9999,0,0,7,11,0,1980-01-06T03:01:33,0.0,0.0,0.0
315964894,120000,94087,94000,0,0,0,64,637813700,0,0,649519168,0,0,0,3873,9999,0,0,33,11,0,1980-01-06T03:01:34,0.0,0.0,0.0
315964895,142000,95109,95000,0,0,0,64,637813700,0,0,649519168,0,0,0,3889,9999,0,0,60,11,0,1980-01-06T03:01:35,0.0,0.0,0.0
315964896,165000,96130,96000,0,0,0,64,637813700,0,0,649519168,0,0,0,3905,9999,0,0,87,11,0,1980-01-06T03:01:36,0.0,0.0,0.0
315964897,128000,97092,97000,0,0,0,64,637813700,0,0,649519168,0,0,0,3921,9999,0,0,108,11,0,1980-01-06T03:01:37,0.0,0.0,0.0
315964898,150000,98113,98000,0,0,0,64,637813700,0,0,649519168,0,0,0,3937,9999,0,0,135,11,0,1980-01-06T03:01:38,0.0,0.0,0.0
315964899,125000,99087,99000,0,0,0,64,637813700,0,0,649519168,0,0,0,3953,9999,0,0,161,11,0,1980-01-06T03:01:39,0.0,0.0,0.0
315964900,147000,100109,100000,0,0,0,64,637813700,0,0,649519168,0,0,0,3969,9999,0,0,188,11,0,1980-01-06T03:01:40,0.0,0.0,0.0
315964901,122000,101083,101000,0,0,0,64,637813700,0,0,649519232,0,0,0,3984,9999,0,0,213,11,0,1980-01-06T03:01:41,0.0,0.0,0.0
315964902,133000,102092,102000,0,0,0,64,637813700,0,0,649519232,0,0,0,4000,9999,0,0,235,11,0,1980-01-06T03:01:42,0.0,0.0,0.0
315964903,155000,103114,103000,0,0,0,64,637813700,0,0,649519232,0,0,0,4016,9999,0,0,6,11,0,1980-01-06T03:01:43,0.0,0.0,0.0
315964904,130000,104087,104000,0,0,0,64,637813700,0,0,649519232,0,0,0,4031,9999,0,0,32,11,0,1980-01-06T03:01:44,0.0,0.0,0.0
315964905,153000,105109,105000,0,0,0,64,637813700,0,0,649519232,0,0,0,4047,9999,0,0,59,11,0,1980-01-06T03:01:45,0.0,0.0,0.0
315964906,128000,106083,106000,0,0,0,64,637813700,0,0,649519232,0,0,0,4062,9999,0,0,85,11,0,1980-01-06T03:01:46,0.0,0.0,0.0
315964907,150000,107105,107000,0,0,0,64,637813700,0,0,649519232,0,0,0,4077,9999,0,0,111,11,0,1980-01-06T03:01:47,0.0,0.0,0.0
315964908,161000,108114,108000,0,0,0,64,637813700,0,0,649519232,0,0,0,4093,9999,0,0,133,11,0,1980-01-06T03:01:48,0.0,0.0,0.0
315964909,135000,109088,109000,0,0,0,64,637813700,0,0,649519232,0,0,0,4108,9999,0,0,159,11,0,1980-01-06T03:01:49,0.0,0.0,0.0
315964910,158000,110109,110000,0,0,0,64,637813700,0,0,649519232,0,0,0,4123,9999,0,0,186,11,0,1980-01-06T03:01:50,0.0,0.0,0.0
315964911,133000,111083,111000,0,0,0,64,637813700,0,0,649519232,0,0,0,4138,9999,0,0,212,11,0,1980-01-06T03:01:51,0.0,0.0,0.0
315964912,155000,112105,112000,0,0,0,64,637813700,0,0,649519232,0,0,0,4153,9999,0,0,238,11,0,1980-01-06T03:01:52,0.0,0.0,0.0
315964913,178000,113127,113000,0,0,0,64,637813700,0,0,649519232,0,0,0,4168,9999,0,0,9,11,0,1980-01-06T03:01:53,0.0,0.0,0.0
315964914,141000,114088,114000,0,0,0,64,637813700,0,0,649519232,0,0,0,4183,9999,0,0,30,11,0,1980-01-06T03:01:54,0.0,0.0,0.0
315964915,163000,115110,115000,0,0,0,64,637813700,0,0,649519232,0,0,0,4198,9999,0,0,57,11,0,1980-01-06T03:01:55,0.0,0.0,0.0
315964916,138000,116084,116000,0,0,0,64,637813700,0,0,649519232,0,0,0,4213,9999,0,0,83,11,0,1980-01-06T03:01:56,0.0,0.0,0.0
315964917,161000,117105,117000,0,0,0,64,637813700,0,0,649519232,0,0,0,4228,9999,0,0,110,11,0,1980-01-06T03:01:57,0.0,0.0,0.0
315964918,184000,118127,118000,0,0,0,64,637813700,0,0,649519232,0,0,0,4243,9999,0,0,136,11,0,1980-01-06T03:01:58,0.0,0.0,0.0
315964919,146000,119088,119000,0,0,0,64,637813700,0,0,649519232,0,0,0,4257,9999,0,0,157,11,0,1980-01-06T03:01:59,0.0,0.0,0.0
315964920,169000,120110,120000,0,0,0,64,637813700,0,0,649519232,0,0,0,4272,9999,0,0,184,11,0,1980-01-06T03:02:00,0.0,0.0,0.0
315964921,143000,121084,121000,0,0,0,64,637813700,0,0,649519232,0,0,0,4287,9999,0,0,210,11,0,1980-01-06T03:02:01,0.0,0.0,0.0
315964922,166000,122105,122000,0,0,0,64,637813700,0,0,649519232,0,0,0,4301,9999,0,0,237,11,0,1980-01-06T03:02:02,0.0,0.0,0.0
315964923,189000,123127,123000,0,0,0,64,637813700,0,0,649519232,0,0,0,4316,9999,0,0,8,11,0,1980-01-06T03:02:03,0.0,0.0,0.0
315964924,164000,124101,124000,0,0,0,64,637813700,0,0,649519232,0,0,0,4330,9999,0,0,33,11,0,1980-01-06T03:02:04,0.0,0.0,0.0
315964925,174000,125110,125000,0,0,0,64,637813700,0,0,649519232,0,0,0,4345,9999,0,0,55,11,0,1980-01-06T03:02:05,0.0,0.0,0.0
315964926,149000,126084,126000,0,0,0,64,637813700,0,0,649519232,0,0,0,4359,9999,0,0,81,11,0,1980-01-06T03:02:06,0.0,0.0,0.0
315964927,171000,127106,127000,0,0,0,64,637813700,0,0,649519232,0,0,0,4373,9999,0,0,108,11,0,1980-01-06T03:02:07,0.0,0.0,0.0
315964928,146000,128080,128000,0,0,0,64,637813700,0,0,649519232,0,0,0,4387,9999,0,0,134,11,0,1980-01-06T03:02:08,0.0,0.0,0.0
315964929,169000,129101,129000,0,0,0,64,637813700,0,0,649519232,0,0,0,4402,9999,0,0,160,11,0,1980-01-06T03:02:09,0.0,0.0,0.0
315964930,191000,130123,130000,0,0,0,64,637813700,0,0,649519296,0,0,0,4416,9999,0,0,187,11,0,1980-01-06T03:02:10,0.0,0.0,0.0
315964931,154000,131084,131000,0,0,0,64,637813700,0,0,649519296,0,0,0,4430,9999,0,0,208,11,0,1980-01-06T03:02:11,0.0,0.0,0.0
315964936,157000,136082,136000,0,0,0,64,637813700,0,0,649519296,0,0,0,4500,9999,0,0,79,11,0,1980-01-06T03:02:16,0.0,0.0,0.0
315964937,179000,137104,137000,0,0,0,64,637813700,0,0,649519296,0,0,0,4514,9999,0,0,106,11,0,1980-01-06T03:02:17,0.0,0.0,0.0
315964938,202000,138126,138000,0,0,0,64,637813700,0,0,649519296,0,0,0,4528,9999,0,0,133,11,0,1980-01-06T03:02:18,0.0,0.0,0.0
315964939,177000,139099,139000,0,0,0,64,637813700,0,0,649519296,0,0,0,4541,9999,0,0,159,11,0,1980-01-06T03:02:19,0.0,0.0,0.0
315964940,200000,140121,140000,0,0,0,64,637813700,0,0,649519296,0,0,0,4555,9999,0,0,186,11,0,1980-01-06T03:02:20,0.0,0.0,0.0
315964941,175000,141095,141000,0,0,0,64,637813700,0,0,649519296,0,0,0,4569,9999,0,0,211,11,0,1980-01-06T03:02:21,0.0,0.0,0.0
315964942,185000,142104,142000,0,0,0,64,637813700,0,0,649519296,0,0,0,4583,9999,0,0,233,11,0,1980-01-06T03:02:22,0.0,0.0,0.0
315964943,208000,143126,143000,0,0,0,64,637813700,0,0,649519360,0,0,0,4596,9999,0,0,4,11,0,1980-01-06T03:02:23,0.0,0.0,0.0
315964944,183000,144100,144000,0,0,0,64,637813700,0,0,649519360,0,0,0,4610,9999,0,0,30,11,0,1980-01-06T03:02:24,0.0,0.0,0.0
315964945,205000,145122,145000,0,0,0,64,637813700,0,0,649519360,0,0,0,4623,9999,0,0,57,11,0,1980-01-06T03:02:25,0.0,0.0,0.0
315964946,180000,146095,146000,0,0,0,64,637813700,0,0,649519360,0,0,0,4637,9999,0,0,82,11,0,1980-01-06T03:02:26,0.0,0.0,0.0
315964947,203000,147117,147000,0,0,0,64,637813700,0,0,649519360,0,0,0,4650,9999,0,0,109,11,0,1980-01-06T03:02:27,0.0,0.0,0.0
315964948,213000,148126,148000,0,0,0,64,637813700,0,0,649519360,0,0,0,4664,9999,0,0,131,11,0,1980-01-06T03:02:28,0.0,0.0,0.0
315964949,188000,149100,149000,0,0,0,64,637813700,0,0,649519360,0,0,0,4677,9999,0,0,157,11,0,1980-01-06T03:02:29,0.0,0.0,0.0
315964950,211000,150122,150000,0,0,0,64,637813700,0,0,649519424,0,0,0,4690,9999,0,0,184,11,0,1980-01-06T03:02:30,0.0,0.0,0.0
315964951,186000,151096,151000,0,0,0,64,637813700,0,0,649519424,0,0,0,4704,9999,0,0,210,11,0,1980-01-06T03:02:31,0.0,0.0,0.0
315964952,208000,152118,152000,0,0,0,64,637813700,0,0,649519424,0,0,0,4717,9999,0,0,236,11,0,1980-01-06T03:02:32,0.0,0.0,0.0
315964953,219000,153127,153000,0,0,0,64,637813700,0,0,649519424,0,0,0,4730,9999,0,0,2,11,0,1980-01-06T03:02:33,0.0,0.0,0.0
315964954,194000,154101,154000,0,0,0,64,637813700,0,0,649519424,0,0,0,4743,9999,0,0,28,11,0,1980-01-06T03:02:34,0.0,0.0,0.0
315964955,216000,155123,155000,0,0,0,64,637813700,0,0,649519424,0,0,0,4757,9999,0,0,55,11,0,1980-01-06T03:02:35,0.0,0.0,0.0
315964956,191000,156097,156000,0,0,0,64,637813700,0,0,649519424,0,0,0,4770,9999,0,0,81,11,0,1980-01-06T03:02:36,0.0,0.0,0.0
315964957,214000,157118,157000,0,0,0,64,637813700,0,0,649519424,0,0,0,4783,9999,0,0,108,11,0,1980-01-06T03:02:37,0.0,0.0,0.0
315964958,189000,158092,158000,0,0,0,64,637813700,0,0,649519424,0,0,0,4796,9999,0,0,133,11,0,1980-01-06T03:02:38,0.0,0.0,0.0
315964959,199000,159101,159000,0,0,0,64,637813700,0,0,649519424,0,0,0,4809,9999,0,0,155,11,0,1980-01-06T03:02:39,0.0,0.0,0.0
315964960,222000,160123,160000,0,0,0,64,637813700,0,0,649519424,0,0,0,4822,9999,0,0,182,11,0,1980-01-06T03:02:40,0.0,0.0,0.0
315964961,196000,161097,161000,0,0,0,64,637813700,0,0,649519424,0,0,0,4835,9999,0,0,208,11,0,1980-01-06T03:02:41,0.0,0.0,0.0
315964962,219000,162119,162000,0,0,0,64,637813700,0,0,649519424,0,0,0,4848,9999,0,0,235,11,0,1980-01-06T03:02:42,0.0,0.0,0.0
315964963,194000,163092,163000,0,0,0,64,637813700,0,0,649519424,0,0,0,4861,9999,0,0,4,11,0,1980-01-06T03:02:43,0.0,0.0,0.0
315964964,217000,164114,164000,0,0,0,64,637813700,0,0,649519424,0,0,0,4873,9999,0,0,31,11,0,1980-01-06T03:02:44,0.0,0.0,0.0
315964965,227000,165124,165000,0,0,0,64,637813700,0,0,649519424,0,0,0,4886,9999,0,0,53,11,0,1980-01-06T03:02:45,0.0,0.0,0.0
315964966,202000,166097,166000,0,0,0,64,637813700,0,0,649519424,0,0,0,4899,9999,0,0,79,11,0,1980-01-06T03:02:46,0.0,0.0,0.0
315964967,225000,167119,167000,0,0,0,64,637813700,0,0,649519488,0,0,0,4912,9999,0,0,106,11,0,1980-01-06T03:02:47,0.0,0.0,0.0
315964968,199000,168093,168000,0,0,0,64,637813700,0,0,649519488,0,0,0,4924,9999,0,0,132,11,0,1980-01-06T03:02:48,0.0,0.0,0.0
315964969,222000,169114,169000,0,0,0,64,637813700,0,0,649519488,0,0,0,4937,9999,0,0,158,11,0,1980-01-06T03:02:49,0.0,0.0,0.0
315964970,232000,170124,170000,0,0,0,64,637813700,0,0,649519488,0,0,0,4950,9999,0,0,180,11,0,1980-01-06T03:02:50,0.0,0.0,0.0
315964971,207000,171098,171000,0,0,0,64,637813700,0,0,649519488,0,0,0,4962,9999,0,0,206,11,0,1980-01-06T03:02:51,0.0,0.0,0.0
315964972,230000,172119,172000,0,0,0,64,637813700,0,0,649519488,0,0,0,4975,9999,0,0,233,11,0,1980-01-06T03:02:52,0.0,0.0,0.0
315964805,87000,5089,5000,0,0,0,64,637813700,0,0,649519040,0,0,0,2000,9999,0,0,67,11,0,1980-01-06T03:00:05,0.0,0.0,0.0
315964806,133000,6134,6000,0,0,0,64,637813700,0,0,649519040,0,0,0,2000,9999,0,0,90,11,0,1980-01-06T03:00:06,0.0,0.0,0.0
315964807,121000,7122,7000,0,0,0,64,637813700,0,0,649519040,0,0,0,2031,9999,0,0,114,11,0,1980-01-06T03:00:07,0.0,0.0,0.0
315964808,95000,8096,8000,0,0,0,64,637813700,0,0,649519040,0,0,0,2062,9999,0,0,140,11,0,1980-01-06T03:00:08,0.0,0.0,0.0
315964809,117000,9118,9000,0,0,0,64,637813700,0,0,649519040,0,0,0,2092,9999,0,0,167,11,0,1980-01-06T03:00:09,0.0,0.0,0.0
315964810,139000,10140,10000,0,0,0,64,637813700,0,0,649519040,0,0,0,2121,9999,0,0,194,11,0,1980-01-06T03:00:10,0.0,0.0,0.0
315964811,101000,11101,11000,0,0,0,64,637813700,0,0,649519040,0,0,0,2151,9999,0,0,215,11,0,1980-01-06T03:00:11,0.0,0.0,0.0
315964812,122000,12123,12000,0,0,0,64,637813700,0,0,649519040,0,0,0,2179,9999,0,0,242,11,0,1980-01-06T03:00:12,0.0,0.0,0.0
315964813,96000,13097,13000,0,0,0,64,637813700,0,0,649519040,0,0,0,2208,9999,0,0,12,11,0,1980-01-06T03:00:13,0.0,0.0,0.0
315964814,118000,14119,14000,0,0,0,64,637813700,0,0,649519040,0,0,0,2236,9999,0,0,39,11,0,1980-01-06T03:00:14,0.0,0.0,0.0
315964815,92000,15092,15000,0,0,0,64,637813700,0,0,649519040,0,0,0,2264,9999,0,0,65,11,0,1980-01-06T03:00:15,0.0,0.0,0.0
315964816,113000,16114,16000,0,0,0,64,637813700,0,0,649519040,0,0,0,2291,9999,0,0,91,11,0,1980-01-06T03:00:16,0.0,0.0,0.0
315964817,123000,17123,17000,0,0,0,64,637813700,0,0,649519040,0,0,0,2318,9999,0,0,113,11,0,1980-01-06T03:00:17,0.0,0.0,0.0
315964818,96000,18097,18000,0,0,0,64,637813700,0,0,649519040,0,0,0,2345,9999,0,0,139,11,0,1980-01-06T03:00:18,0.0,0.0,0.0
315964819,118000,19119,19000,0,0,0,64,637813700,0,0,649519040,0,0,0,2372,9999,0,0,166,11,0,1980-01-06T03:00:19,0.0,0.0,0.0
315964805,86000,5088,5000,0,0,0,64,637813700,0,0,649519040,0,0,0,2000,9999,0,0,67,11,0,1980-01-06T03:00:05,0.0,0.0,0.0
315964806,132000,6133,6000,0,0,0,64,637813700,0,0,649519040,0,0,0,2000,9999,0,0,90,11,0,1980-01-06T03:00:06,0.0,0.0,0.0
315964807,119000,7120,7000,0,0,0,64,637813700,0,0,649519040,0,0,0,2031,9999,0,0,114,11,0,1980-01-06T03:00:07,0.0,0.0,0.0
315964808,94000,8094,8000,0,0,0,64,637813700,0,0,649519040,0,0,0,2062,9999,0,0,140,11,0,1980-01-06T03:00:08,0.0,0.0,0.0
315964809,115000,9116,9000,0,0,0,64,637813700,0,0,649519040,0,0,0,2092,9999,0,0,167,11,0,1980-01-06T03:00:09,0.0,0.0,0.0
315964810,89000,10090,10000,0,0,0,64,637813700,0,0,649519040,0,0,0,2121,9999,0,0,193,11,0,1980-01-06T03:00:10,0.0,0.0,0.0
315964811,99000,11099,11000,0,0,0,64,637813700,0,0,649519040,0,0,0,2151,9999,0,0,215,11,0,1980-01-06T03:00:11,0.0,0.0,0.0
315964812,120000,12121,12000,0,0,0,64,637813700,0,0,649519040,0,0,0,2179,9999,0,0,241,11,0,1980-01-06T03:00:12,0.0,0.0,0.0
315964813,94000,13094,13000,0,0,0,64,637813700,0,0,649519040,0,0,0,2208,9999,0,0,11,11,0,1980-01-06T03:00:13,0.0,0.0,0.0
315964814,116000,14116,14000,0,0,0,64,637813700,0,0,649519040,0,0,0,2236,9999,0,0,38,11,0,1980-01-06T03:00:14,0.0,0.0,0.0
315964815,89000,15090,15000,0,0,0,64,637813700,0,0,649519040,0,0,0,2264,9999,0,0,64,11,0,1980-01-06T03:00:15,0.0,0.0,0.0
315964816,111000,16111,16000,0,0,0,64,637813700,0,0,649519040,0,0,0,2291,9999,0,0,90,11,0,1980-01-06T03:00:16,0.0,0.0,0.0
315964817,120000,17121,17000,0,0,0,64,637813700,0,0,649519040,0,0,0,2318,9999,0,0,112,11,0,1980-01-06T03:00:17,0.0,0.0,0.0
315964818,94000,18094,18000,0,0,0,64,637813700,0,0,649519040,0,0,0,2345,9999,0,0,138,11,0,1980-01-06T03:00:18,0.0,0.0,0.0
315964819,116000,19116,19000,0,0,0,64,637813700,0,0,649519040,0,0,0,2372,9999,0,0,165,11,0,1980-01-06T03:00:19,0.0,0.0,0.0
315964805,101000,5102,5000,0,0,0,64,637813700,0,0,649519040,0,0,0,2000,9999,0,0,68,11,0,1980-01-06T03:00:05,0.0,0.0,0.0
315964806,100000,6101,6000,0,0,0,64,637813700,0,0,649519040,0,0,0,2000,9999,0,0,91,11,0,1980-01-06T03:00:06,0.0,0.0,0.0
315964807,119000,7121,7000,0,0,0,64,637813700,0,0,649519040,0,0,0,2031,9999,0,0,114,11,0,1980-01-06T03:00:07,0.0,0.0,0.0
315964808,94000,8094,8000,0,0,0,64,637813700,0,0,649519040,0,0,0,2062,9999,0,0,140,11,0,1980-01-06T03:00:08,0.0,0.0,0.0
315964809,116000,9116,9000,0,0,0,64,637813700,0,0,649519040,0,0,0,2092,9999,0,0,167,11,0,1980-01-06T03:00:09,0.0,0.0,0.0
315964805,84000,5085,5000,0,0,0,64,637813700,0,0,649519040,0,0,0,2000,9999,0,0,68,11,0,1980-01-06T03:00:05,0.0,0.0,0.0
315964806,114000,6115,6000,0,0,0,64,637813700,0,0,649519040,0,0,0,2000,9999,0,0,92,11,0,1980-01-06T03:00:06,0.0,0.0,0.0
315964807,120000,7121,7000,0,0,0,64,637813700,0,0,649519040,0,0,0,2016,9999,0,0,114,11,0,1980-01-06T03:00:07,0.0,0.0,0.0
315964808,94000,8095,8000,0,0,0,64,637813700,0,0,649519040,0,0,0,2046,9999,0,0,140,11,0,1980-01-06T03:00:08,0.0,0.0,0.0
315964809,116000,9116,9000,0,0,0,64,637813700,0,0,649519040,0,0,0,2077,9999,0,0,167,11,0,1980-01-06T03:00:09,0.0,0.0,0.0
315964805,87000,5088,5000,0,0,0,64,637813700,0,0,649519040,0,0,0,2000,9999,0,0,67,11,0,1980-01-06T03:00:05,0.0,0.0,0.0
315964806,132000,6133,6000,0,0,0,64,637813700,0,0,649519040,0,0,0,2000,9999,0,0,90,11,0,1980-01-06T03:00:06,0.0,0.0,0.0
315964807,119000,7121,7000,0,0,0,64,637813700,0,0,649519040,0,0,0,2031,9999,0,0,114,11,0,1980-01-06T03:00:07,0.0,0.0,0.0
315964808,93000,8094,8000,0,0,0,64,637813700,0,0,649519040,0,0,0,2062,9999,0,0,140,11,0,1980-01-06T03:00:08,0.0,0.0,0.0
315964809,115000,9116,9000,0,0,0,64,637813700,0,0,649519040,0,0,0,2092,9999,0,0,167,11,0,1980-01-06T03:00:09,0.0,0.0,0.0
315964805,87000,5088,5000,0,0,0,64,637813700,0,0,649519040,0,0,0,2000,9999,0,0,67,11,0,1980-01-06T03:00:05,0.0,0.0,0.0
315964806,132000,6133,6000,0,0,0,64,637813700,0,0,649519040,0,0,0,2000,9999,0,0,90,11,0,1980-01-06T03:00:06,0.0,0.0,0.0
315964807,119000,7120,7000,0,0,0,64,637813700,0,0,649519040,0,0,0,2031,9999,0,0,114,11,0,1980-01-06T03:00:07,0.0,0.0,0.0
315964808,93000,8094,8000,0,0,0,64,637813700,0,0,649519040,0,0,0,2062,9999,0,0,140,11,0,1980-01-06T03:00:08,0.0,0.0,0.0
315964809,114000,9116,9000,0,0,0,64,637813700,0,0,649519040,0,0,0,2092,9999,0,0,167,11,0,1980-01-06T03:00:09,0.0,0.0,0.0
315964805,104000,5105,5000,0,0,0,64,637813700,0,0,649519040,0,0,0,2000,9999,0,0,67,11,0,1980-01-06T03:00:05,0.0,0.0,0.0
315964806,91000,6092,6000,0,0,0,64,637813700,0,0,649519040,0,0,0,2016,9999,0,0,88,11,0,1980-01-06T03:00:06,0.0,0.0,0.0
315964807,119000,7121,7000,0,0,0,64,637813700,0,0,649519040,0,0,0,2046,9999,0,0,114,11,0,1980-01-06T03:00:07,0.0,0.0,0.0
315964808,93000,8094,8000,0,0,0,64,637813700,0,0,649519040,0,0,0,2077,9999,0,0,140,11,0,1980-01-06T03:00:08,0.0,0.0,0.0
315964809,114000,9116,9000,0,0,0,64,637813700,0,0,649519040,0,0,0,2107,9999,0,0,166,11,0,1980-01-06T03:00:09,0.0,0.0,0.0
315964805,86000,5087,5000,0,0,0,64,637813700,0,0,649519040,0,0,0,2000,9999,0,0,67,11,0,1980-01-06T03:00:05,0.0,0.0,0.0
315964806,132000,6133,6000,0,0,0,64,637813700,0,0,649519040,0,0,0,2000,9999,0,0,90,11,0,1980-01-06T03:00:06,0.0,0.0,0.0
315964807,119000,7120,7000,0,0,0,64,637813700,0,0,649519040,0,0,0,2031,9999,0,0,114,11,0,1980-01-06T03:00:07,0.0,0.0,0.0
315964808,93000,8094,8000,0,0,0,64,637813700,0,0,649519040,0,0,0,2062,9999,0,0,140,11,0,1980-01-06T03:00:08,0.0,0.0,0.0
315964805,91000,5093,5000,0,0,0,64,637813700,0,0,649519040,0,0,0,2000,9999,0,0,67,11,0,1980-01-06T03:00:05,0.0,0.0,0.0
315964806,139000,6140,6000,0,0,0,64,637813700,0,0,649519040,0,0,0,2000,9999,0,0,90,11,0,1980-01-06T03:00:06,0.0,0.0,0.0
315964807,79000,7081,7000,0,0,0,64,637813700,0,0,649519040,0,0,0,2031,9999,0,0,113,11,0,1980-01-06T03:00:07,0.0,0.0,0.0
315964808,104000,8104,8000,0,0,0,64,637813700,0,0,649519040,0,0,0,2062,9999,0,0,140,11,0,1980-01-06T03:00:08,0.0,0.0,0.0
315964809,79000,9080,9000,0,0,0,64,637813700,0,0,649519040,0,0,0,2092,9999,0,0,166,11,0,1980-01-06T03:00:09,0.0,0.0,0.0
315964805,103000,5105,5000,0,0,0,64,637813700,0,0,649519040,0,0,0,2000,9999,0,0,68,11,0,1980-01-06T03:00:05,0.0,0.0,0.0
315964806,103000,6104,6000,0,0,0,64,637813700,0,0,649519040,0,0,0,2000,9999,0,0,91,11,0,1980-01-06T03:00:06,0.0,0.0,0.0
315964807,122000,7123,7000,0,0,0,64,637813700,0,0,649519040,0,0,0,2016,9999,0,0,114,11,0,1980-01-06T03:00:07,0.0,0.0,0.0
315964808,97000,8097,8000,0,0,0,64,637813700,0,0,649519040,0,0,0,2046,9999,0,0,140,11,0,1980-01-06T03:00:08,0.0,0.0,0.0
315964809,118000,9119,9000,0,0,0,64,637813700,0,0,649519040,0,0,0,2077,9999,0,0,167,11,0,1980-01-06T03:00:09,0.0,0.0,0.0
315964810,92000,10093,10000,0,0,0,64,637813700,0,0,649519040,0,0,0,2107,9999,0,0,193,11,0,1980-01-06T03:00:10,0.0,0.0,0.0
315964811,102000,11102,11000,0,0,0,64,637813700,0,0,649519040,0,0,0,2136,9999,0,0,215,11,0,1980-01-06T03:00:11,0.0,0.0,0.0
315964812,123000,12124,12000,0,0,0,64,637813700,0,0,649519040,0,0,0,2165,9999,0,0,242,11,0,1980-01-06T03:00:12,0.0,0.0,0.0
315964813,97000,13098,13000,0,0,0,64,637813700,0,0,649519040,0,0,0,2194,9999,0,0,12,11,0,1980-01-06T03:00:13,0.0,0.0,0.0
315964814,119000,14119,14000,0,0,0,64,637813700,0,0,649519040,0,0,0,2222,9999,0,0,39,11,0,1980-01-06T03:00:14,0.0,0.0,0.0
315964815,93000,15093,15000,0,0,0,64,637813700,0,0,649519040,0,0,0,2250,9999,0,0,65,11,0,1980-01-06T03:00:15,0.0,0.0,0.0
315964816,114000,16115,16000,0,0,0,64,637813700,0,0,649519040,0,0,0,2278,9999,0,0,91,11,0,1980-01-06T03:00:16,0.0,0.0,0.0
315964817,124000,17124,17000,0,0,0,64,637813700,0,0,649519040,0,0,0,2305,9999,0,0,113,11,0,1980-01-06T03:00:17,0.0,0.0,0.0
315964818,98000,18098,18000,0,0,0,64,637813700,0,0,649519040,0,0,0,2332,9999,0,0,139,11,0,1980-01-06T03:00:18,0.0,0.0,0.0
315964819,119000,19119,19000,0,0,0,64,637813700,0,0,649519040,0,0,0,2358,9999,0,0,166,11,0,1980-01-06T03:00:19,0.0,0.0,0.0
315964820,93000,20093,20000,0,0,0,64,637813700,0,0,649519040,0,0,0,2385,9999,0,0,192,11,0,1980-01-06T03:00:20,0.0,0.0,0.0
315964821,114000,21115,21000,0,0,0,64,637813700,0,0,649519040,0,0,0,2411,9999,0,0,219,11,0,1980-01-06T03:00:21,0.0,0.0,0.0
315964822,88000,22089,22000,0,0,0,64,637813700,0,0,649519040,0,0,0,2437,9999,0,0,244,11,0,1980-01-06T03:00:22,0.0,0.0,0.0
315964823,98000,23098,23000,0,0,0,64,637813700,0,0,649519040,0,0,0,2462,9999,0,0,10,11,0,1980-01-06T03:00:23,0.0,0.0,0.0
315964824,119000,24119,24000,0,0,0,64,637813700,0,0,649519040,0,0,0,2487,9999,0,0,37,11,0,1980-01-06T03:00:24,0.0,0.0,0.0
315964825,93000,25093,25000,0,0,0,64,637813700,0,0,649519040,0,0,0,2512,9999,0,0,63,11,0,1980-01-06T03:00:25,0.0,0.0,0.0
315964826,114000,26115,26000,0,0,0,64,637813700,0,0,649519040,0,0,0,2537,9999,0,0,90,11,0,1980-01-06T03:00:26,0.0,0.0,0.0
315964827,88000,27088,27000,0,0,0,64,637813700,0,0,649519040,0,0,0,2562,9999,0,0,116,11,0,1980-01-06T03:00:27,0.0,0.0,0.0
315964828,97000,28098,28000,0,0,0,64,637813700,0,0,649519040,0,0,0,2586,9999,0,0,138,11,0,1980-01-06T03:00:28,0.0,0.0,0.0
315964829,119000,29119,29000,0,0,0,64,637813700,0,0,649519040,0,0,0,2610,9999,0,0,164,11,0,1980-01-06T03:00:29,0.0,0.0,0.0
315964830,93000,30093,30000,0,0,0,64,637813700,0,0,649519040,0,0,0,2634,9999,0,0,190,11,0,1980-01-06T03:00:30,0.0,0.0,0.0
315964831,114000,31115,31000,0,0,0,64,637813700,0,0,649519040,0,0,0,2658,9999,0,0,217,11,0,1980-01-06T03:00:31,0.0,0.0,0.0
315964832,88000,32088,32000,0,0,0,64,637813700,0,0,649519040,0,0,0,2681,9999,0,0,243,11,0,1980-01-06T03:00:32,0.0,0.0,0.0
315964833,110000,33110,33000,0,0,0,64,637813700,0,0,649519040,0,0,0,2704,9999,0,0,13,11,0,1980-01-06T03:00:33,0.0,0.0,0.0
315964834,119000,34119,34000,0,0,0,64,637813700,0,0,649519040,0,0,0,2727,9999,0,0,35,11,0,1980-01-06T03:00:34,0.0,0.0,0.0
315964835,93000,35093,35000,0,0,0,64,637813700,0,0,649519040,0,0,0,2750,9999,0,0,61,11,0,1980-01-06T03:00:35,0.0,0.0,0.0
315964836,114000,36114,36000,0,0,0,64,637813700,0,0,649519040,0,0,0,2773,9999,0,0,88,11,0,1980-01-06T03:00:36,0.0,0.0,0.0
315964837,88000,37088,37000,0,0,0,64,637813700,0,0,649519040,0,0,0,2795,9999,0,0,114,11,0,1980-01-06T03:00:37,0.0,0.0,0.0
315964838,110000,38110,38000,0,0,0,64,637813700,0,0,649519040,0,0,0,2817,9999,0,0,141,11,0,1980-01-06T03:00:38,0.0,0.0,0.0
315964839,83000,39084,39000,0,0,0,64,637813700,0,0,649519040,0,0,0,2839,9999,0,0,166,11,0,1980-01-06T03:00:39,0.0,0.0,0.0
315964840,93000,40093,40000,0,0,0,64,637813700,0,0,649519040,0,0,0,2861,9999,0,0,188,11,0,1980-01-06T03:00:40,0.0,0.0,0.0
315964841,114000,41115,41000,0,0,0,64,637813700,0,0,649519040,0,0,0,2883,9999,0,0,215,11,0,1980-01-06T03:00:41,0.0,0.0,0.0
315964842,88000,42088,42000,0,0,0,64,637813700,0,0,649519040,0,0,0,2905,9999,0,0,241,11,0,1980-01-06T03:00:42,0.0,0.0,0.0
315964843,110000,43110,43000,0,0,0,64,637813700,0,0,649519040,0,0,0,2926,9999,0,0,12,11,0,1980-01-06T03:00:43,0.0,0.0,0.0
315964844,83000,44084,44000,0,0,0,64,637813700,0,0,649519040,0,0,0,2947,9999,0,0,38,11,0,1980-01-06T03:00:44,0.0,0.0,0.0
315964845,93000,45093,45000,0,0,0,64,637813700,0,0,649519040,0,0,0,2969,9999,0,0,60,11,0,1980-01-06T03:00:45,0.0,0.0,0.0
315964846,114000,46115,46000,0,0,0,64,637813700,0,0,649519040,0,0,0,2990,9999,0,0,86,11,0,1980-01-06T03:00:46,0.0,0.0,0.0
315964847,88000,47088,47000,0,0,0,64,637813700,0,0,649519040,0,0,0,3010,9999,0,0,112,11,0,1980-01-06T03:00:47,0.0,0.0,0.0
315964848,110000,48110,48000,0,0,0,64,637813700,0,0,649519040,0,0,0,3031,9999,0,0,139,11,0,1980-01-06T03:00:48,0.0,0.0,0.0
315964849,84000,49084,49000,0,0,0,64,637813700,0,0,649519040,0,0,0,3052,9999,0,0,165,11,0,1980-01-06T03:00:49,0.0,0.0,0.0
315964850,105000,50105,50000,0,0,0,64,637813700,0,0,649519040,0,0,0,3072,9999,0,0,191,11,0,1980-01-06T03:00:50,0.0,0.0,0.0
315964851,114000,51115,51000,0,0,0,64,637813700,0,0,649519040,0,0,0,3092,9999,0,0,213,11,0,1980-01-06T03:00:51,0.0,0.0,0.0
315964852,88000,52089,52000,0,0,0,64,637813700,0,0,649519040,0,0,0,3112,9999,0,0,239,11,0,1980-01-06T03:00:52,0.0,0.0,0.0
315964853,110000,53110,53000,0,0,0,64,637813700,0,0,649519040,0,0,0,3132,9999,0,0,10,11,0,1980-01-06T03:00:53,0.0,0.0,0.0
315964854,84000,54084,54000,0,0,0,64,637813700,0,0,649519040,0,0,0,3152,9999,0,0,36,11,0,1980-01-06T03:00:54,0.0,0.0,0.0
315964855,105000,55106,55000,0,0,0,64,637813700,0,0,649519040,0,0,0,3172,9999,0,0,63,11,0,1980-01-06T03:00:55,0.0,0.0,0.0
315964856,79000,56079,56000,0,0,0,64,637813700,0,0,649519040,0,0,0,3192,9999,0,0,88,11,0,1980-01-06T03:00:56,0.0,0.0,0.0
315964857,88000,57089,57000,0,0,0,64,637813700,0,0,649519040,0,0,0,3211,9999,0,0,110,11,0,1980-01-06T03:00:57,0.0,0.0,0.0
315964858,110000,58110,58000,0,0,0,64,637813700,0,0,649519040,0,0,0,3231,9999,0,0,137,11,0,1980-01-06T03:00:58,0.0,0.0,0.0
315964859,84000,59084,59000,0,0,0,64,637813700,0,0,649519040,0,0,0,3250,9999,0,0,163,11,0,1980-01-06T03:00:59,0.0,0.0,0.0
315964860,106000,60106,60000,0,0,0,64,637813700,0,0,649519104,0,0,0,3269,9999,0,0,190,11,0,1980-01-06T03:01:00,0.0,0.0,0.0
315964861,79000,61080,61000,0,0,0,64,637813700,0,0,649519104,0,0,0,3288,9999,0,0,216,11,0,1980-01-06T03:01:01,0.0,0.0,0.0
315964862,89000,62089,62000,0,0,0,64,637813700,0,0,649519104,0,0,0,3307,9999,0,0,238,11,0,1980-01-06T03:01:02,0.0,0.0,0.0
315964863,110000,63111,63000,0,0,0,64,637813700,0,0,649519104,0,0,0,3326,9999,0,0,8,11,0,1980-01-06T03:01:03,0.0,0.0,0.0
315964864,84000,64085,64000,0,0,0,64,637813700,0,0,649519104,0,0,0,3345,9999,0,0,34,11,0,1980-01-06T03:01:04,0.0,0.0,0.0
315964865,106000,65106,65000,0,0,0,64,637813700,0,0,649519104,0,0,0,3363,9999,0,0,61,11,0,1980-01-06T03:01:05,0.0,0.0,0.0
315964866,80000,66080,66000,0,0,0,64,637813700,0,0,649519104,0,0,0,3382,9999,0,0,87,11,0,1980-01-06T03:01:06,0.0,0.0,0.0
315964867,102000,67102,67000,0,0,0,64,637813700,0,0,649519104,0,0,0,3400,9999,0,0,113,11,0,1980-01-06T03:01:07,0.0,0.0,0.0
315964868,111000,68111,68000,0,0,0,64,637813700,0,0,649519104,0,0,0,3419,9999,0,0,135,11,0,1980-01-06T03:01:08,0.0,0.0,0.0
315964869,85000,69085,69000,0,0,0,64,637813700,0,0,649519104,0,0,0,3437,9999,0,0,161,11,0,1980-01-06T03:01:09,0.0,0.0,0.0
315964870,107000,70107,70000,0,0,0,64,637813700,0,0,649519104,0,0,0,3455,9999,0,0,188,11,0,1980-01-06T03:01:10,0.0,0.0,0.0
315964871,81000,71081,71000,0,0,0,64,637813700,0,0,649519104,0,0,0,3473,9999,0,0,214,11,0,1980-01-06T03:01:11,0.0,0.0,0.0
315964872,103000,72103,72000,0,0,0,64,637813700,0,0,649519104,0,0,0,3491,9999,0,0,241,11,0,1980-01-06T03:01:12,0.0,0.0,0.0
315964873,125000,73125,73000,0,0,0,64,637813700,0,0,649519104,0,0,0,3509,9999,0,0,11,11,0,1980-01-06T03:01:13,0.0,0.0,0.0
315964874,86000,74086,74000,0,0,0,64,637813700,0,0,649519104,0,0,0,3527,9999,0,0,32,11,0,1980-01-06T03:01:14,0.0,0.0,0.0
315964875,108000,75108,75000,0,0,0,64,637813700,0,0,649519104,0,0,0,3544,9999,0,0,59,11,0,1980-01-06T03:01:15,0.0,0.0,0.0
315964876,82000,76082,76000,0,0,0,64,637813700,0,0,649519104,0,0,0,3562,9999,0,0,85,11,0,1980-01-06T03:01:16,0.0,0.0,0.0
315964877,103000,77104,77000,0,0,0,64,637813700,0,0,649519104,0,0,0,3579,9999,0,0,112,11,0,1980-01-06T03:01:17,0.0,0.0,0.0
315964878,77000,78077,78000,0,0,0,64,637813700,0,0,649519104,0,0,0,3597,9999,0,0,138,11,0,1980-01-06T03:01:18,0.0,0.0,0.0
315964879,87000,79087,79000,0,0,0,64,637813700,0,0,649519104,0,0,0,3614,9999,0,0,160,11,0,1980-01-06T03:01:19,0.0,0.0,0.0
315964880,108000,80109,80000,0,0,0,64,637813700,0,0,649519104,0,0,0,3631,9999,0,0,186,11,0,1980-01-06T03:01:20,0.0,0.0,0.0
315964881,82000,81082,81000,0,0,0,64,637813700,0,0,649519104,0,0,0,3649,9999,0,0,212,11,0,1980-01-06T03:01:21,0.0,0.0,0.0
315964882,104000,82104,82000,0,0,0,64,637813700,0,0,649519104,0,0,0,3666,9999,0,0,239,11,0,1980-01-06T03:01:22,0.0,0.0,0.0
315964883,78000,83078,83000,0,0,0,64,637813700,0,0,649519104,0,0,0,3683,9999,0,0,9,11,0,1980-01-06T03:01:23,0.0,0.0,0.0
315964884,99000,84099,84000,0,0,0,64,637813700,0,0,649519104,0,0,0,3700,9999,0,0,35,11,0,1980-01-06T03:01:24,0.0,0.0,0.0
315964885,109000,85109,85000,0,0,0,64,637813700,0,0,649519104,0,0,0,3717,9999,0,0,57,11,0,1980-01-06T03:01:25,0.0,0.0,0.0
315964886,82000,86083,86000,0,0,0,64,637813700,0,0,649519104,0,0,0,3733,9999,0,0,83,11,0,1980-01-06T03:01:26,0.0,0.0,0.0
315964887,104000,87104,87000,0,0,0,64,637813700,0,0,649519104,0,0,0,3750,9999,0,0,110,11,0,1980-01-06T03:01:27,0.0,0.0,0.0
315964888,78000,88078,88000,0,0,0,64,637813700,0,0,649519104,0,0,0,3767,9999,0,0,136,11,0,1980-01-06T03:01:28,0.0,0.0,0.0
315964889,100000,89100,89000,0,0,0,64,637813700,0,0,649519104,0,0,0,3783,9999,0,0,163,11,0,1980-01-06T03:01:29,0.0,0.0,0.0
315964890,121000,90122,90000,0,0,0,64,637813700,0,0,649519104,0,0,0,3800,9999,0,0,189,11,0,1980-01-06T03:01:30,0.0,0.0,0.0
315964891,83000,91083,91000,0,0,0,64,637813700,0,0,649519104,0,0,0,3816,9999,0,0,210,11,0,1980-01-06T03:01:31,0.0,0.0,0.0
315964892,105000,92105,92000,0,0,0,64,637813700,0,0,649519104,0,0,0,3832,9999,0,0,237,11,0,1980-01-06T03:01:32,0.0,0.0,0.0
315964893,78000,93078,93000,0,0,0,64,637813700,0,0,649519168,0,0,0,3849,9999,0,0,7,11,0,1980-01-06T03:01:33,0.0,0.0,0.0
315964894,100000,94100,94000,0,0,0,64,637813700,0,0,649519168,0,0,0,3865,9999,0,0,34,11,0,1980-01-06T03:01:34,0.0,0.0,0.0
315964895,122000,95122,95000,0,0,0,64,637813700,0,0,649519168,0,0,0,3881,9999,0,0,61,11,0,1980-01-06T03:01:35,0.0,0.0,0.0
315964896,83000,96083,96000,0,0,0,64,637813700,0,0,649519168,0,0,0,3897,9999,0,0,82,11,0,1980-01-06T03:01:36,0.0,0.0,0.0
315964897,105000,97105,97000,0,0,0,64,637813700,0,0,649519168,0,0,0,3913,9999,0,0,108,11,0,1980-01-06T03:01:37,0.0,0.0,0.0
315964898,78000,98079,98000,0,0,0,64,637813700,0,0,649519168,0,0,0,3929,9999,0,0,134,11,0,1980-01-06T03:01:38,0.0,0.0,0.0
315964899,100000,99100,99000,0,0,0,64,637813700,0,0,649519168,0,0,0,3945,9999,0,0,161,11,0,1980-01-06T03:01:39,0.0,0.0,0.0
315964900,122000,100122,100000,0,0,0,64,637813700,0,0,649519168,0,0,0,3961,9999,0,0,188,11,0,1980-01-06T03:01:40,0.0,0.0,0.0
315964901,95000,101096,101000,0,0,0,64,637813700,0,0,649519232,0,0,0,3976,9999,0,0,213,11,0,1980-01-06T03:01:41,0.0,0.0,0.0
315964902,105000,102105,102000,0,0,0,64,637813700,0,0,649519232,0,0,0,3992,9999,0,0,235,11,0,1980-01-06T03:01:42,0.0,0.0,0.0
315964903,79000,103079,103000,0,0,0,64,637813700,0,0,649519232,0,0,0,4008,9999,0,0,5,11,0,1980-01-06T03:01:43,0.0,0.0,0.0
315964904,100000,104101,104000,0,0,0,64,637813700,0,0,649519232,0,0,0,4023,9999,0,0,32,11,0,1980-01-06T03:01:44,0.0,0.0,0.0
315964905,122000,105122,105000,0,0,0,64,637813700,0,0,649519232,0,0,0,4039,9999,0,0,59,11,0,1980-01-06T03:01:45,0.0,0.0,0.0
315964906,96000,106096,106000,0,0,0,64,637813700,0,0,649519232,0,0,0,4054,9999,0,0,85,11,0,1980-01-06T03:01:46,0.0,0.0,0.0
315964907,117000,107118,107000,0,0,0,64,637813700,0,0,649519232,0,0,0,4070,9999,0,0,111,11,0,1980-01-06T03:01:47,0.0,0.0,0.0
315964908,79000,108079,108000,0,0,0,64,637813700,0,0,649519232,0,0,0,4085,9999,0,0,132,11,0,1980-01-06T03:01:48,0.0,0.0,0.0
315964909,101000,109101,109000,0,0,0,64,637813700,0,0,649519232,0,0,0,4100,9999,0,0,159,11,0,1980-01-06T03:01:49,0.0,0.0,0.0
315964910,122000,110123,110000,0,0,0,64,637813700,0,0,649519232,0,0,0,4116,9999,0,0,186,11,0,1980-01-06T03:01:50,0.0,0.0,0.0
315964911,96000,111096,111000,0,0,0,64,637813700,0,0,649519232,0,0,0,4131,9999,0,0,212,11,0,1980-01-06T03:01:51,0.0,0.0,0.0
315964912,118000,112118,112000,0,0,0,64,637813700,0,0,649519232,0,0,0,4146,9999,0,0,239,11,0,1980-01-06T03:01:52,0.0,0.0,0.0
315964913,79000,113080,113000,0,0,0,64,637813700,0,0,649519232,0,0,0,4161,9999,0,0,4,11,0,1980-01-06T03:01:53,0.0,0.0,0.0
315964914,101000,114101,114000,0,0,0,64,637813700,0,0,649519232,0,0,0,4176,9999,0,0,30,11,0,1980-01-06T03:01:54,0.0,0.0,0.0
315964915,123000,115123,115000,0,0,0,64,637813700,0,0,649519232,0,0,0,4191,9999,0,0,57,11,0,1980-01-06T03:01:55,0.0,0.0,0.0
315964916,97000,116097,116000,0,0,0,64,637813700,0,0,649519232,0,0,0,4206,9999,0,0,83,11,0,1980-01-06T03:01:56,0.0,0.0,0.0
315964917,118000,117119,117000,0,0,0,64,637813700,0,0,649519232,0,0,0,4220,9999,0,0,110,11,0,1980-01-06T03:01:57,0.0,0.0,0.0
315964918,92000,118092,118000,0,0,0,64,637813700,0,0,649519232,0,0,0,4235,9999,0,0,135,11,0,1980-01-06T03:01:58,0.0,0.0,0.0
315964919,102000,119102,119000,0,0,0,64,637813700,0,0,649519232,0,0,0,4250,9999,0,0,157,11,0,1980-01-06T03:01:59,0.0,0.0,0.0
315964920,124000,120124,120000,0,0,0,64,637813700,0,0,649519232,0,0,0,4265,9999,0,0,184,11,0,1980-01-06T03:02:00,0.0,0.0,0.0
315964921,98000,121098,121000,0,0,0,64,637813700,0,0,649519232,0,0,0,4279,9999,0,0,210,11,0,1980-01-06T03:02:01,0.0,0.0,0.0
315964922,119000,122120,122000,0,0,0,64,637813700,0,0,649519232,0,0,0,4294,9999,0,0,237,11,0,1980-01-06T03:02:02,0.0,0.0,0.0
315964923,93000,123093,123000,0,0,0,64,637813700,0,0,649519232,0,0,0,4308,9999,0,0,7,11,0,1980-01-06T03:02:03,0.0,0.0,0.0
315964924,115000,124115,124000,0,0,0,64,637813700,0,0,649519232,0,0,0,4323,9999,0,0,33,11,0,1980-01-06T03:02:04,0.0,0.0,0.0
315964925,124000,125124,125000,0,0,0,64,637813700,0,0,649519232,0,0,0,4337,9999,0,0,55,11,0,1980-01-06T03:02:05,0.0,0.0,0.0
315964926,98000,126098,126000,0,0,0,64,637813700,0,0,649519232,0,0,0,4352,9999,0,0,81,11,0,1980-01-06T03:02:06,0.0,0.0,0.0
315964927,120000,127120,127000,0,0,0,64,637813700,0,0,649519232,0,0,0,4366,9999,0,0,108,11,0,1980-01-06T03:02:07,0.0,0.0,0.0
315964928,94000,128094,128000,0,0,0,64,637813700,0,0,649519232,0,0,0,4380,9999,0,0,134,11,0,1980-01-06T03:02:08,0.0,0.0,0.0
315964929,116000,129116,129000,0,0,0,64,637813700,0,0,649519232,0,0,0,4395,9999,0,0,161,11,0,1980-01-06T03:02:09,0.0,0.0,0.0
315964930,78000,130078,130000,0,0,0,64,637813700,0,0,649519296,0,0,0,4409,9999,0,0,182,11,0,1980-01-06T03:02:10,0.0,0.0,0.0
315964931,99000,131099,131000,0,0,0,64,637813700,0,0,649519296,0,0,0,4423,9999,0,0,208,11,0,1980-01-06T03:02:11,0.0,0.0,0.0
315964932,121000,132121,132000,0,0,0,64,637813700,0,0,649519296,0,0,0,4437,9999,0,0,235,11,0,1980-01-06T03:02:12,0.0,0.0,0.0
315964933,95000,133095,133000,0,0,0,64,637813700,0,0,649519296,0,0,0,4451,9999,0,0,5,11,0,1980-01-06T03:02:13,0.0,0.0,0.0
315964934,117000,134117,134000,0,0,0,64,637813700,0,0,649519296,0,0,0,4465,9999,0,0,32,11,0,1980-01-06T03:02:14,0.0,0.0,0.0
315964935,91000,135091,135000,0,0,0,64,637813700,0,0,649519296,0,0,0,4479,9999,0,0,57,11,0,1980-01-06T03:02:15,0.0,0.0,0.0
315964936,100000,136100,136000,0,0,0,64,637813700,0,0,649519296,0,0,0,4493,9999,0,0,79,11,0,1980-01-06T03:02:16,0.0,0.0,0.0
315964937,122000,137122,137000,0,0,0,64,637813700,0,0,649519296,0,0,0,4507,9999,0,0,106,11,0,1980-01-06T03:02:17,0.0,0.0,0.0
315964938,96000,138096,138000,0,0,0,64,637813700,0,0,649519296,0,0,0,4521,9999,0,0,132,11,0,1980-01-06T03:02:18,0.0,0.0,0.0
315964939,118000,139118,139000,0,0,0,64,637813700,0,0,649519296,0,0,0,4535,9999,0,0,159,11,0,1980-01-06T03:02:19,0.0,0.0,0.0
315964940,92000,140092,140000,0,0,0,64,637813700,0,0,649519296,0,0,0,4548,9999,0,0,185,11,0,1980-01-06T03:02:20,0.0,0.0,0.0
315964941,114000,141114,141000,0,0,0,64,637813700,0,0,649519296,0,0,0,4562,9999,0,0,211,11,0,1980-01-06T03:02:21,0.0,0.0,0.0
315964942,123000,142123,142000,0,0,0,64,637813700,0,0,649519296,0,0,0,4576,9999,0,0,233,11,0,1980-01-06T03:02:22,0.0,0.0,0.0
315964943,97000,143097,143000,0,0,0,64,637813700,0,0,649519360,0,0,0,4589,9999,0,0,3,11,0,1980-01-06T03:02:23,0.0,0.0,0.0
315964944,119000,144119,144000,0,0,0,64,637813700,0,0,649519360,0,0,0,4603,9999,0,0,30,11,0,1980-01-06T03:02:24,0.0,0.0,0.0
315964945,93000,145093,145000,0,0,0,64,637813700,0,0,649519360,0,0,0,4617,9999,0,0,56,11,0,1980-01-06T03:02:25,0.0,0.0,0.0
315964946,115000,146115,146000,0,0,0,64,637813700,0,0,649519360,0,0,0,4630,9999,0,0,83,11,0,1980-01-06T03:02:26,0.0,0.0,0.0
315964947,137000,147137,147000,0,0,0,64,637813700,0,0,649519360,0,0,0,4644,9999,0,0,109,11,0,1980-01-06T03:02:27,0.0,0.0,0.0
315964948,98000,148098,148000,0,0,0,64,637813700,0,0,649519360,0,0,0,4657,9999,0,0,130,11,0,1980-01-06T03:02:28,0.0,0.0,0.0
315964949,120000,149120,149000,0,0,0,64,637813700,0,0,649519360,0,0,0,4670,9999,0,0,157,11,0,1980-01-06T03:02:29,0.0,0.0,0.0
315964950,94000,150094,150000,0,0,0,64,637813700,0,0,649519424,0,0,0,4684,9999,0,0,183,11,0,1980-01-06T03:02:30,0.0,0.0,0.0
315964951,116000,151116,151000,0,0,0,64,637813700,0,0,649519424,0,0,0,4697,9999,0,0,210,11,0,1980-01-06T03:02:31,0.0,0.0,0.0
315964952,90000,152090,152000,0,0,0,64,637813700,0,0,649519424,0,0,0,4710,9999,0,0,235,11,0,1980-01-06T03:02:32,0.0,0.0,0.0
315964953,99000,153099,153000,0,0,0,64,637813700,0,0,649519424,0,0,0,4724,9999,0,0,1,11,0,1980-01-06T03:02:33,0.0,0.0,0.0
315964954,121000,154121,154000,0,0,0,64,637813700,0,0,649519424,0,0,0,4737,9999,0,0,28,11,0,1980-01-06T03:02:34,0.0,0.0,0.0
315964955,95000,155095,155000,0,0,0,64,637813700,0,0,649519424,0,0,0,4750,9999,0,0,54,11,0,1980-01-06T03:02:35,0.0,0.0,0.0
315964956,116000,156116,156000,0,0,0,64,637813700,0,0,649519424,0,0,0,4763,9999,0,0,81,11,0,1980-01-06T03:02:36,0.0,0.0,0.0
315964957,90000,157090,157000,0,0,0,64,637813700,0,0,649519424,0,0,0,4776,9999,0,0,107,11,0,1980-01-06T03:02:37,0.0,0.0,0.0
315964958,112000,158112,158000,0,0,0,64,637813700,0,0,649519424,0,0,0,4789,9999,0,0,133,11,0,1980-01-06T03:02:38,0.0,0.0,0.0
315964959,122000,159122,159000,0,0,0,64,637813700,0,0,649519424,0,0,0,4802,9999,0,0,155,11,0,1980-01-06T03:02:39,0.0,0.0,0.0
315964960,96000,160096,160000,0,0,0,64,637813700,0,0,649519424,0,0,0,4815,9999,0,0,181,11,0,1980-01-06T03:02:40,0.0,0.0,0.0
315964961,118000,161118,161000,0,0,0,64,637813700,0,0,649519424,0,0,0,4828,9999,0,0,208,11,0,1980-01-06T03:02:41,0.0,0.0,0.0
315964962,92000,162092,162000,0,0,0,64,637813700,0,0,649519424,0,0,0,4841,9999,0,0,234,11,0,1980-01-06T03:02:42,0.0,0.0,0.0
315964963,114000,163114,163000,0,0,0,64,637813700,0,0,649519424,0,0,0,4854,9999,0,0,5,11,0,1980-01-06T03:02:43,0.0,0.0,0.0
315964964,136000,164136,164000,0,0,0,64,637813700,0,0,649519424,0,0,0,4867,9999,0,0,31,11,0,1980-01-06T03:02:44,0.0,0.0,0.0
315964965,98000,165098,165000,0,0,0,64,637813700,0,0,649519424,0,0,0,4880,9999,0,0,52,11,0,1980-01-06T03:02:45,0.0,0.0,0.0
315964966,120000,166120,166000,0,0,0,64,637813700,0,0,649519424,0,0,0,4893,9999,0,0,79,11,0,1980-01-06T03:02:46,0.0,0.0,0.0
315964967,94000,167094,167000,0,0,0,64,637813700,0,0,649519488,0,0,0,4905,9999,0,0,105,11,0,1980-01-06T03:02:47,0.0,0.0,0.0
315964968,116000,168116,168000,0,0,0,64,637813700,0,0,649519488,0,0,0,4918,9999,0,0,132,11,0,1980-01-06T03:02:48,0.0,0.0,0.0
315964969,90000,169090,169000,0,0,0,64,637813700,0,0,649519488,0,0,0,4931,9999,0,0,157,11,0,1980-01-06T03:02:49,0.0,0.0,0.0
315964970,99000,170099,170000,0,0,0,64,637813700,0,0,649519488,0,0,0,4943,9999,0,0,179,11,0,1980-01-06T03:02:50,0.0,0.0,0.0
315964971,121000,171121,171000,0,0,0,64,637813700,0,0,649519488,0,0,0,4956,9999,0,0,206,11,0,1980-01-06T03:02:51,0.0,0.0,0.0
315964972,95000,172095,172000,0,0,0,64,637813700,0,0,649519488,0,0,0,4969,9999,0,0,232,11,0,1980-01-06T03:02:52,0.0,0.0,0.0
315964973,117000,173117,173000,0,0,0,64,637813700,0,0,649519488,0,0,0,4981,9999,0,0,3,11,0,1980-01-06T03:02:53,0.0,0.0,0.0
315964974,91000,174091,174000,0,0,0,64,637813700,0,0,649519488,0,0,0,4994,9999,0,0,29,11,0,1980-01-06T03:02:54,0.0,0.0,0.0
315964975,113000,175113,175000,0,0,0,64,637813700,0,0,649519488,0,0,0,5006,9999,0,0,55,11,0,1980-01-06T03:02:55,0.0,0.0,0.0
315964976,123000,176123,176000,0,0,0,64,637813700,0,0,649519552,0,0,0,5019,9999,0,0,77,11,0,1980-01-06T03:02:56,0.0,0.0,0.0
315964977,97000,177097,177000,0,0,0,64,637813700,0,0,649519552,0,0,0,5031,9999,0,0,103,11,0,1980-01-06T03:02:57,0.0,0.0,0.0
315964978,119000,178119,178000,0,0,0,64,637813700,0,0,649519552,0,0,0,5044,9999,0,0,130,11,0,1980-01-06T03:02:58,0.0,0.0,0.0
315964979,93000,179093,179000,0,0,0,64,637813700,0,0,649519552,0,0,0,5056,9999,0,0,156,11,0,1980-01-06T03:02:59,0.0,0.0,0.0
315964980,115000,180115,180000,0,0,0,64,637813700,0,0,649519552,0,0,0,5068,9999,0,0,183,11,0,1980-01-06T03:03:00,0.0,0.0,0.0
315964981,77000,181077,181000,0,0,0,64,637813700,0,0,649519616,0,0,0,5081,9999,0,0,204,11,0,1980-01-06T03:03:01,0.0,0.0,0.0
315964982,98000,182099,182000,0,0,0,64,637813700,0,0,649519616,0,0,0,5093,9999,0,0,230,11,0,1980-01-06T03:03:02,0.0,0.0,0.0
315964983,120000,183120,183000,0,0,0,64,637813700,0,0,649519616,0,0,0,5105,9999,0,0,1,11,0,1980-01-06T03:03:03,0.0,0.0,0.0
315964984,94000,184094,184000,0,0,0,64,637813700,0,0,649519616,0,0,0,5117,9999,0,0,27,11,0,1980-01-06T03:03:04,0.0,0.0,0.0
315964985,116000,185116,185000,0,0,0,64,637813700,0,0,649519616,0,0,0,5130,9999,0,0,54,11,0,1980-01-06T03:03:05,0.0,0.0,0.0
315964986,90000,186090,186000,0,0,0,64,637813700,0,0,649519616,0,0,0,5142,9999,0,0,79,11,0,1980-01-06T03:03:06,0.0,0.0,0.0
315964987,99000,187099,187000,0,0,0,64,637813700,0,0,649519616,0,0,0,5154,9999,0,0,101,11,0,1980-01-06T03:03:07,0.0,0.0,0.0
315964988,121000,188121,188000,0,0,0,64,637813700,0,0,649519616,0,0,0,5166,9999,0,0,128,11,0,1980-01-06T03:03:08,0.0,0.0,0.0
315964989,95000,189095,189000,0,0,0,64,637813700,0,0,649519680,0,0,0,5178,9999,0,0,154,11,0,1980-01-06T03:03:09,0.0,0.0,0.0
315964990,117000,190117,190000,0,0,0,64,637813700,0,0,649519680,0,0,0,5190,9999,0,0,181,11,0,1980-01-06T03:03:10,0.0,0.0,0.0
315964991,91000,191091,191000,0,0,0,64,637813700,0,0,649519680,0,0,0,5202,9999,0,0,207,11,0,1980-01-06T03:03:11,0.0,0.0,0.0
315964992,113000,192113,192000,0,0,0,64,637813700,0,0,649519680,0,0,0,5214,9999,0,0,233,11,0,1980-01-06T03:03:12,0.0,0.0,0.0
315964993,122000,193122,193000,0,0,0,64,637813700,0,0,649519680,0,0,0,5226,9999,0,0,255,11,0,1980-01-06T03:03:13,0.0,0.0,0.0
315964994,96000,194096,194000,0,0,0,64,637813700,0,0,649519680,0,0,0,5238,9999,0,0,25,11,0,1980-01-06T03:03:14,0.0,0.0,0.0
315964995,118000,195118,195000,0,0,0,64,637813700,0,0,649519680,0,0,0,5250,9999,0,0,52,11,0,1980-01-06T03:03:15,0.0,0.0,0.0
315964996,92000,196092,196000,0,0,0,64,637813700,0,0,649519680,0,0,0,5262,9999,0,0,78,11,0,1980-01-06T03:03:16,0.0,0.0,0.0
315964997,113000,197113,197000,0,0,0,64,637813700,0,0,649519680,0,0,0,5274,9999,0,0,105,11,0,1980-01-06T03:03:17,0.0,0.0,0.0
315964998,135000,198135,198000,0,0,0,64,637813700,0,0,649519680,0,0,0,5286,9999,0,0,131,11,0,1980-01-06T03:03:18,0.0,0.0,0.0
315964999,97000,199097,199000,0,0,0,64,637813700,0,0,649519680,0,0,0,5297,9999,0,0,152,11,0,1980-01-06T03:03:19,0.0,0.0,0.0
315965000,118000,200119,200000,0,0,0,64,637813700,0,0,649519680,0,0,0,5309,9999,0,0,179,11,0,1980-01-06T03:03:20,0.0,0.0,0.0
315965001,92000,201092,201000,0,0,0,64,637813700,0,0,649519744,0,0,0,5321,9999,0,0,205,11,0,1980-01-06T03:03:21,0.0,0.0,0.0
315965002,114000,202114,202000,0,0,0,64,637813700,0,0,649519744,0,0,0,5333,9999,0,0,232,11,0,1980-01-06T03:03:22,0.0,0.0,0.0
315965003,88000,203088,203000,0,0,0,64,637813700,0,0,649519744,0,0,0,5344,9999,0,0,1,11,0,1980-01-06T03:03:23,0.0,0.0,0.0
315965004,98000,204098,204000,0,0,0,64,637813700,0,0,649519744,0,0,0,5356,9999,0,0,23,11,0,1980-01-06T03:03:24,0.0,0.0,0.0
315965005,119000,205120,205000,0,0,0,64,637813700,0,0,649519744,0,0,0,5368,9999,0,0,50,11,0,1980-01-06T03:03:25,0.0,0.0,0.0
315965006,93000,206094,206000,0,0,0,64,637813700,0,0,649519744,0,0,0,5379,9999,0,0,76,11,0,1980-01-06T03:03:26,0.0,0.0,0.0
315965007,115000,207115,207000,0,0,0,64,637813700,0,0,649519744,0,0,0,5391,9999,0,0,103,11,0,1980-01-06T03:03:27,0.0,0.0,0.0
315965008,89000,208089,208000,0,0,0,64,637813700,0,0,649519744,0,0,0,5403,9999,0,0,129,11,0,1980-01-06T03:03:28,0.0,0.0,0.0
315965009,111000,209111,209000,0,0,0,64,637813700,0,0,649519808,0,0,0,5414,9999,0,0,155,11,0,1980-01-06T03:03:29,0.0,0.0,0.0
315965010,121000,210121,210000,0,0,0,64,637813700,0,0,649519808,0,0,0,5426,9999,0,0,177,11,0,1980-01-06T03:03:30,0.0,0.0,0.0
315965011,95000,211095,211000,0,0,0,64,637813700,0,0,649519872,0,0,0,5437,9999,0,0,203,11,0,1980-01-06T03:03:31,0.0,0.0,0.0
315965012,117000,212117,212000,0,0,0,64,637813700,0,0,649519872,0,0,0,5449,9999,0,0,230,11,0,1980-01-06T03:03:32,0.0,0.0,0.0
315965013,91000,213091,213000,0,0,0,64,637813700,0,0,649519872,0,0,0,5460,9999,0,0,0,11,0,1980-01-06T03:03:33,0.0,0.0,0.0
315965014,113000,214113,214000,0,0,0,64,637813700,0,0,649519872,0,0,0,5472,9999,0,0,27,11,0,1980-01-06T03:03:34,0.0,0.0,0.0
315965015,135000,215135,215000,0,0,0,64,637813700,0,0,649519872,0,0,0,5483,9999,0,0,53,11,0,1980-01-06T03:03:35,0.0,0.0,0.0
315965016,96000,216096,216000,0,0,0,64,637813700,0,0,649519872,0,0,0,5494,9999,0,0,74,11,0,1980-01-06T03:03:36,0.0,0.0,0.0
315965017,118000,217118,217000,0,0,0,64,637813700,0,0,649519872,0,0,0,5506,9999,0,0,101,11,0,1980-01-06T03:03:37,0.0,0.0,0.0
315965018,93000,218093,218000,0,0,0,64,637813700,0,0,649519872,0,0,0,5517,9999,0,0,127,11,0,1980-01-06T03:03:38,0.0,0.0,0.0
315965019,115000,219115,219000,0,0,0,64,637813700,0,0,649519872,0,0,0,5528,9999,0,0,154,11,0,1980-01-06T03:03:39,0.0,0.0,0.0
315965020,89000,220089,220000,0,0,0,64,637813700,0,0,649519872,0,0,0,5540,9999,0,0,179,11,0,1980-01-06T03:03:40,0.0,0.0,0.0
315965021,98000,221098,221000,0,0,0,64,637813700,0,0,649519872,0,0,0,5551,9999,0,0,201,11,0,1980-01-06T03:03:41,0.0,0.0,0.0
315965022,120000,222120,222000,0,0,0,64,637813700,0,0,649519872,0,0,0,5562,9999,0,0,228,11,0,1980-01-06T03:03:42,0.0,0.0,0.0
315965023,94000,223094,223000,0,0,0,64,637813700,0,0,649519936,0,0,0,5573,9999,0,0,254,11,0,1980-01-06T03:03:43,0.0,0.0,0.0
315965024,116000,224116,224000,0,0,0,64,637813700,0,0,649519936,0,0,0,5585,9999,0,0,25,11,0,1980-01-06T03:03:44,0.0,0.0,0.0
315965025,91000,225091,225000,0,0,0,64,637813700,0,0,649519936,0,0,0,5596,9999,0,0,51,11,0,1980-01-06T03:03:45,0.0,0.0,0.0
315965026,113000,226113,226000,0,0,0,64,637813700,0,0,649519936,0,0,0,5607,9999,0,0,77,11,0,1980-01-06T03:03:46,0.0,0.0,0.0
315965027,122000,227122,227000,0,0,0,64,637813700,0,0,649519936,0,0,0,5618,9999,0,0,99,11,0,1980-01-06T03:03:47,0.0,0.0,0.0
315965028,96000,228096,228000,0,0,0,64,637813700,0,0,649520000,0,0,0,5629,9999,0,0,125,11,0,1980-01-06T03:03:48,0.0,0.0,0.0
315965029,118000,229118,229000,0,0,0,64,637813700,0,0,649520000,0,0,0,5640,9999,0,0,152,11,0,1980-01-06T03:03:49,0.0,0.0,0.0
315965030,94000,230094,230000,0,0,0,64,637813700,0,0,649520064,0,0,0,5651,9999,0,0,178,11,0,1980-01-06T03:03:50,0.0,0.0,0.0
315965031,117000,231117,231000,0,0,0,64,637813700,0,0,649520064,0,0,0,5662,9999,0,0,205,11,0,1980-01-06T03:03:51,0.0,0.0,0.0
315965032,83000,232083,232000,0,0,0,64,637813700,0,0,649520064,0,0,0,5673,9999,0,0,226,11,0,1980-01-06T03:03:52,0.0,0.0,0.0
315965033,109000,233109,233000,0,0,0,64,637813700,0,0,649520064,0,0,0,5684,9999,0,0,252,11,0,1980-01-06T03:03:53,0.0,0.0,0.0
315965034,86000,234086,234000,0,0,0,64,637813700,0,0,649520064,0,0,0,5695,9999,0,0,22,11,0,1980-01-06T03:03:54,0.0,0.0,0.0
315965035,113000,235113,235000,0,0,0,64,637813700,0,0,649520064,0,0,0,5706,9999,0,0,49,11,0,1980-01-06T03:03:55,0.0,0.0,0.0
315965036,91000,236091,236000,0,0,0,64,637813700,0,0,649520064,0,0,0,5717,9999,0,0,75,11,0,1980-01-06T03:03:56,0.0,0.0,0.0
315965037,116000,237116,237000,0,0,0,64,637813700,0,0,649520128,0,0,0,5728,9999,0,0,101,11,0,1980-01-06T03:03:57,0.0,0.0,0.0
315965038,81000,238081,238000,0,0,0,64,637813700,0,0,649520128,0,0,0,5739,9999,0,0,122,11,0,1980-01-06T03:03:58,0.0,0.0,0.0
315965039,107000,239107,239000,0,0,0,64,637813700,0,0,649520128,0,0,0,5750,9999,0,0,149,11,0,1980-01-06T03:03:59,0.0,0.0,0.0
315965040,84000,240084,240000,0,0,0,64,637813700,0,0,649520128,0,0,0,5761,9999,0,0,175,11,0,1980-01-06T03:04:00,0.0,0.0,0.0
315965041,110000,241110,241000,0,0,0,64,637813700,0,0,649520128,0,0,0,5772,9999,0,0,202,11,0,1980-01-06T03:04:01,0.0,0.0,0.0
315965042,88000,242088,242000,0,0,0,64,637813700,0,0,649520128,0,0,0,5783,9999,0,0,228,11,0,1980-01-06T03:04:02,0.0,0.0,0.0
315965043,113000,243113,243000,0,0,0,64,637813700,0,0,649520128,0,0,0,5793,9999,0,0,254,11,0,1980-01-06T03:04:03,0.0,0.0,0.0
315965044,126000,244126,244000,0,0,0,64,637813700,0,0,649520128,0,0,0,5804,9999,0,0,20,11,0,1980-01-06T03:04:04,0.0,0.0,0.0
315965045,104000,245104,245000,0,0,0,64,637813700,0,0,649520128,0,0,0,5815,9999,0,0,46,11,0,1980-01-06T03:04:05,0.0,0.0,0.0
315965046,81000,246081,246000,0,0,0,64,637813700,0,0,649520192,0,0,0,5826,9999,0,0,72,11,0,1980-01-06T03:04:06,0.0,0.0,0.0
315965047,107000,247107,247000,0,0,0,64,637813700,0,0,649520192,0,0,0,5836,9999,0,0,99,11,0,1980-01-06T03:04:07,0.0,0.0,0.0
315965048,85000,248085,248000,0,0,0,64,637813700,0,0,649520192,0,0,0,5847,9999,0,0,124,11,0,1980-01-06T03:04:08,0.0,0.0,0.0
315965049,99000,249099,249000,0,0,0,64,637813700,0,0,649520192,0,0,0,5858,9999,0,0,146,11,0,1980-01-06T03:04:09,0.0,0.0,0.0
315965050,125000,250125,250000,0,0,0,64,637813700,0,0,649520192,0,0,0,5868,9999,0,0,173,11,0,1980-01-06T03:04:10,0.0,0.0,0.0
315965051,102000,251102,251000,0,0,0,64,637813700,0,0,649520256,0,0,0,5879,9999,0,0,199,11,0,1980-01-06T03:04:11,0.0,0.0,0.0
315965052,128000,252128,252000,0,0,0,64,637813700,0,0,649520320,0,0,0,5890,9999,0,0,226,11,0,1980-01-06T03:04:12,0.0,0.0,0.0
315965053,105000,253105,253000,0,0,0,64,637813700,0,0,649520320,0,0,0,5900,9999,0,0,252,11,0,1980-01-06T03:04:13,0.0,0.0,0.0
315965054,84000,254084,254000,0,0,0,64,637813700,0,0,649520320,0,0,0,5911,9999,0,0,21,11,0,1980-01-06T03:04:14,0.0,0.0,0.0
315965055,98000,255098,255000,0,0,0,64,637813700,0,0,649520320,0,0,0,5921,9999,0,0,43,11,0,1980-01-06T03:04:15,0.0,0.0,0.0
315965056,124000,256124,256000,0,0,0,64,637813700,0,0,649520320,0,0,0,5932,9999,0,0,70,11,0,1980-01-06T03:04:16,0.0,0.0,0.0
315965057,101000,257101,257000,0,0,0,64,637813700,0,0,649520320,0,0,0,5942,9999,0,0,96,11,0,1980-01-06T03:04:17,0.0,0.0,0.0
315965058,127000,258127,258000,0,0,0,64,637813700,0,0,649520320,0,0,0,5953,9999,0,0,123,11,0,1980-01-06T03:04:18,0.0,0.0,0.0
315965059,105000,259105,259000,0,0,0,64,637813700,0,0,649520320,0,0,0,5963,9999,0,0,149,11,0,1980-01-06T03:04:19,0.0,0.0,0.0
315965060,120000,260120,260000,0,0,0,64,637813700,0,0,649520320,0,0,0,5974,9999,0,0,171,11,0,1980-01-06T03:04:20,0.0,0.0,0.0
315965061,96000,261096,261000,0,0,0,64,637813700,0,0,649520384,0,0,0,5984,9999,0,0,197,11,0,1980-01-06T03:04:21,0.0,0.0,0.0
315965062,120000,262120,262000,0,0,0,64,637813700,0,0,649520384,0,0,0,5995,9999,0,0,224,11,0,1980-01-06T03:04:22,0.0,0.0,0.0
315965063,95000,263095,263000,0,0,0,64,637813700,0,0,649520384,0,0,0,6005,9999,0,0,250,11,0,1980-01-06T03:04:23,0.0,0.0,0.0
315965064,119000,264119,264000,0,0,0,64,637813700,0,0,649520384,0,0,0,6016,9999,0,0,21,11,0,1980-01-06T03:04:24,0.0,0.0,0.0
315965065,94000,265094,265000,0,0,0,64,637813700,0,0,649520448,0,0,0,6026,9999,0,0,46,11,0,1980-01-06T03:04:25,0.0,0.0,0.0
315965066,108000,266108,266000,0,0,0,64,637813700,0,0,649520448,0,0,0,6036,9999,0,0,68,11,0,1980-01-06T03:04:26,0.0,0.0,0.0
315965067,87000,267087,267000,0,0,0,64,637813700,0,0,649520448,0,0,0,6047,9999,0,0,94,11,0,1980-01-06T03:04:27,0.0,0.0,0.0
