time_s,time_us,time_steady,iTOW,fTOW,week,gpsFix,flags,ecefX,ecefY,ecefZ,pAcc,ecefVX,ecefVY,ecefVZ,sAcc,pDOP,reserved1,numSV,seq,srcSystem,srcComponent,time_gregorian,log_timestamp,log_timestamp_gregorian,lat,lon,h
315965011,377000,211363,138065000,0,2178,0,76,637813700,0,0,649519872,0,0,0,5444,9999,0,0,210,11,0,1980-01-06T03:03:31,1633357252.744736,2021-10-04T17:20:52,0.0,0.0,0.0
315965014,348000,214334,138068000,0,2178,0,76,637813700,0,0,649519872,0,0,0,5479,9999,0,0,32,11,0,1980-01-06T03:03:34,1633357257.7550209,2021-10-04T17:20:57,0.0,0.0,0.0
315965019,349000,219335,138073000,0,2178,0,76,637813700,0,0,649519872,0,0,0,5535,9999,0,0,160,11,0,1980-01-06T03:03:39,1633357262.7752209,2021-10-04T17:21:02,0.0,0.0,0.0
315965024,492000,224478,138078000,0,2178,0,76,637813700,0,0,649519936,0,0,0,5591,9999,0,0,34,11,0,1980-01-06T03:03:44,1633357268.37514,2021-10-04T17:21:08,0.0,0.0,0.0
315965029,350000,229335,138083000,0,2178,0,76,637813700,0,0,649520000,0,0,0,5647,9999,0,0,158,11,0,1980-01-06T03:03:49,1633357271.3249838,2021-10-04T17:21:11,0.0,0.0,0.0
315965034,352000,234338,138088000,0,2178,0,76,637813700,0,0,649520064,0,0,0,5702,9999,0,0,30,11,0,1980-01-06T03:03:54,1633357276.355053,2021-10-04T17:21:16,0.0,0.0,0.0
315965038,345000,238330,138092000,0,2178,0,76,637813700,0,0,649520128,0,0,0,5746,9999,0,0,135,11,0,1980-01-06T03:03:58,1633357281.966209,2021-10-04T17:21:21,0.0,0.0,0.0
315965047,383000,247358,138101000,0,2178,0,76,637813700,0,0,649520192,0,0,0,5843,9999,0,0,108,11,0,1980-01-06T03:04:07,1633357289.985285,2021-10-04T17:21:29,0.0,0.0,0.0
315965053,364000,253334,138107000,0,2178,0,76,637813700,0,0,649520320,0,0,0,5907,9999,0,0,5,11,0,1980-01-06T03:04:13,1633357295.625553,2021-10-04T17:21:35,0.0,0.0,0.0
315965057,348000,257314,138111000,0,2178,0,76,637813700,0,0,649520320,0,0,0,5949,9999,0,0,105,11,0,1980-01-06T03:04:17,1633357300.025292,2021-10-04T17:21:40,0.0,0.0,0.0
315965062,355000,262316,138116000,0,2178,0,76,637813700,0,0,649520384,0,0,0,6001,9999,0,0,232,11,0,1980-01-06T03:04:22,1633357302.9755719,2021-10-04T17:21:42,0.0,0.0,0.0
315965067,362000,267318,138121000,0,2178,0,76,637813700,0,0,649520512,0,0,0,6053,9999,0,0,103,11,0,1980-01-06T03:04:27,1633357308.616652,2021-10-04T17:21:48,0.0,0.0,0.0
315965070,383000,270336,138124000,0,2178,0,76,637813700,0,0,649520512,0,0,0,6084,9999,0,0,183,11,0,1980-01-06T03:04:30,1633357313.6252809,2021-10-04T17:21:53,0.0,0.0,0.0
315965075,388000,275336,138129000,0,2178,0,76,637813700,0,0,649520576,0,0,0,6135,9999,0,0,54,11,0,1980-01-06T03:04:35,1633357318.645565,2021-10-04T17:21:58,0.0,0.0,0.0
315965080,394000,280337,138134000,0,2178,0,76,637813700,0,0,649520640,0,0,0,6186,9999,0,0,181,11,0,1980-01-06T03:04:40,1633357321.615401,2021-10-04T17:22:01,0.0,0.0,0.0
315965085,401000,285338,138139000,0,2178,0,76,637813700,0,0,649520768,0,0,0,6236,9999,0,0,52,11,0,1980-01-06T03:04:45,1633357326.585772,2021-10-04T17:22:06,0.0,0.0,0.0
315965089,397000,289331,138143000,0,2178,0,76,637813700,0,0,649520768,0,0,0,6276,9999,0,0,157,11,0,1980-01-06T03:04:49,1633357331.6261399,2021-10-04T17:22:11,0.0,0.0,0.0
315965094,404000,294333,138148000,0,2178,0,76,637813700,0,0,649520896,0,0,0,6326,9999,0,0,29,11,0,1980-01-06T03:04:54,1633357337.216116,2021-10-04T17:22:17,0.0,0.0,0.0
315965099,409000,299333,138153000,0,2178,0,76,637813700,0,0,649520960,0,0,0,6375,9999,0,0,156,11,0,1980-01-06T03:04:59,1633357340.185441,2021-10-04T17:22:20,0.0,0.0,0.0
315965102,561000,302482,138156000,0,2178,0,76,637813700,0,0,649521024,0,0,0,6404,9999,0,0,234,11,0,1980-01-06T03:05:02,1633357345.195392,2021-10-04T17:22:25,0.0,0.0,0.0
315965107,425000,307340,138161000,0,2178,0,76,637813700,0,0,649521152,0,0,0,6453,9999,0,0,102,11,0,1980-01-06T03:05:07,1633357350.7959049,2021-10-04T17:22:30,0.0,0.0,0.0
315965112,444000,312355,138166000,0,2178,0,76,637813700,0,0,649521216,0,0,0,6501,9999,0,0,234,11,0,1980-01-06T03:05:12,1633357355.245705,2021-10-04T17:22:35,0.0,0.0,0.0
315965116,428000,316335,138170000,0,2178,0,76,637813700,0,0,649521280,0,0,0,6539,9999,0,0,78,11,0,1980-01-06T03:05:16,1633357358.7555249,2021-10-04T17:22:38,0.0,0.0,0.0
315965122,459000,322359,138176000,0,2178,0,76,637813700,0,0,649521408,0,0,0,6597,9999,0,0,232,11,0,1980-01-06T03:05:22,1633357364.326292,2021-10-04T17:22:44,0.0,0.0,0.0
315965126,585000,326482,138180000,0,2178,0,76,637813700,0,0,649521472,0,0,0,6634,9999,0,0,80,11,0,1980-01-06T03:05:26,1633357369.355865,2021-10-04T17:22:49,0.0,0.0,0.0
315965136,456000,336342,138190000,0,2178,0,76,637813700,0,0,649521664,0,0,0,6728,9999,0,0,75,11,0,1980-01-06T03:05:36,1633357377.3656929,2021-10-04T17:22:57,0.0,0.0,0.0
315965140,451000,340333,138194000,0,2178,0,76,637813700,0,0,649521728,0,0,0,6765,9999,0,0,180,11,0,1980-01-06T03:05:40,1633357382.388481,2021-10-04T17:23:02,0.0,0.0,0.0
315965145,458000,345336,138199000,0,2178,0,76,637813700,0,0,649521856,0,0,0,6811,9999,0,0,51,11,0,1980-01-06T03:05:45,1633357387.376085,2021-10-04T17:23:07,0.0,0.0,0.0
315965149,441000,349315,138203000,0,2178,0,76,637813700,0,0,649521920,0,0,0,6848,9999,0,0,152,11,0,1980-01-06T03:05:49,1633357392.976553,2021-10-04T17:23:12,0.0,0.0,0.0
315965154,447000,354316,138208000,0,2178,0,76,637813700,0,0,649522112,0,0,0,6893,9999,0,0,23,11,0,1980-01-06T03:05:54,1633357395.9264169,2021-10-04T17:23:15,0.0,0.0,0.0
315965159,454000,359318,138213000,0,2178,0,76,637813700,0,0,649522176,0,0,0,6938,9999,0,0,150,11,0,1980-01-06T03:05:59,1633357400.9659328,2021-10-04T17:23:20,0.0,0.0,0.0
315965163,498000,363358,138217000,0,2178,0,76,637813700,0,0,649522304,0,0,0,6974,9999,0,0,0,11,0,1980-01-06T03:06:03,1633357406.026428,2021-10-04T17:23:26,0.0,0.0,0.0
315965168,650000,368504,138222000,0,2178,0,76,637813700,0,0,649522432,0,0,0,7019,9999,0,0,130,11,0,1980-01-06T03:06:08,1633357411.066068,2021-10-04T17:23:31,0.0,0.0,0.0
315965173,513000,373363,138227000,0,2178,0,76,637813700,0,0,649522560,0,0,0,7063,9999,0,0,255,11,0,1980-01-06T03:06:13,1633357414.6460679,2021-10-04T17:23:34,0.0,0.0,0.0
315965178,471000,378316,138232000,0,2178,0,76,637813700,0,0,649522688,0,0,0,7107,9999,0,0,125,11,0,1980-01-06T03:06:18,1633357419.7262769,2021-10-04T17:23:39,0.0,0.0,0.0
315965182,504000,382344,138236000,0,2178,0,76,637813700,0,0,649522752,0,0,0,7142,9999,0,0,227,11,0,1980-01-06T03:06:22,1633357424.7462769,2021-10-04T17:23:44,0.0,0.0,0.0
315965187,510000,387345,138241000,0,2178,0,76,637813700,0,0,649522944,0,0,0,7186,9999,0,0,98,11,0,1980-01-06T03:06:27,1633357430.306272,2021-10-04T17:23:50,0.0,0.0,0.0
315965191,506000,391337,138245000,0,2178,0,76,637813700,0,0,649523072,0,0,0,7221,9999,0,0,203,11,0,1980-01-06T03:06:31,1633357433.246248,2021-10-04T17:23:53,0.0,0.0,0.0
315965195,489000,395317,138249000,0,2178,0,76,637813700,0,0,649523136,0,0,0,7255,9999,0,0,47,11,0,1980-01-06T03:06:35,1633357437.686513,2021-10-04T17:23:57,0.0,0.0,0.0
315965201,519000,401341,138255000,0,2178,0,76,637813700,0,0,649523328,0,0,0,7307,9999,0,0,201,11,0,1980-01-06T03:06:41,1633357443.326681,2021-10-04T17:24:03,0.0,0.0,0.0
315965205,502000,405320,138259000,0,2178,0,76,637813700,0,0,649523392,0,0,0,7341,9999,0,0,46,11,0,1980-01-06T03:06:45,1633357448.3561609,2021-10-04T17:24:08,0.0,0.0,0.0
315965209,533000,409347,138263000,0,2178,0,76,637813700,0,0,649523520,0,0,0,7375,9999,0,0,147,11,0,1980-01-06T03:06:49,1633357451.9262118,2021-10-04T17:24:11,0.0,0.0,0.0
315965215,515000,415323,138269000,0,2178,0,76,637813700,0,0,649523712,0,0,0,7426,9999,0,0,44,11,0,1980-01-06T03:06:55,1633357457.536628,2021-10-04T17:24:17,0.0,0.0,0.0
315965219,558000,419362,138273000,0,2178,0,76,637813700,0,0,649523840,0,0,0,7459,9999,0,0,150,11,0,1980-01-06T03:06:59,1633357461.946261,2021-10-04T17:24:21,0.0,0.0,0.0
315965224,517000,424315,138278000,0,2178,0,76,637813700,0,0,649523968,0,0,0,7501,9999,0,0,20,11,0,1980-01-06T03:07:04,1633357467.5466769,2021-10-04T17:24:27,0.0,0.0,0.0
315965229,526000,429320,138283000,0,2178,0,76,637813700,0,0,649524160,0,0,0,7542,9999,0,0,147,11,0,1980-01-06T03:07:09,1633357470.506068,2021-10-04T17:24:30,0.0,0.0,0.0
315965233,559000,433349,138287000,0,2178,0,76,637813700,0,0,649524288,0,0,0,7576,9999,0,0,249,11,0,1980-01-06T03:07:13,1633357475.566457,2021-10-04T17:24:35,0.0,0.0,0.0
315965238,568000,438353,138292000,0,2178,0,76,637813700,0,0,649524480,0,0,0,7617,9999,0,0,121,11,0,1980-01-06T03:07:18,1633357480.586205,2021-10-04T17:24:40,0.0,0.0,0.0
315965242,564000,442345,138296000,0,2178,0,76,637813700,0,0,649524608,0,0,0,7649,9999,0,0,226,11,0,1980-01-06T03:07:22,1633357486.236845,2021-10-04T17:24:46,0.0,0.0,0.0
315965247,573000,447349,138301000,0,2178,0,76,637813700,0,0,649524800,0,0,0,7690,9999,0,0,97,11,0,1980-01-06T03:07:27,1633357488.626525,2021-10-04T17:24:48,0.0,0.0,0.0
315965251,556000,451328,138305000,0,2178,0,76,637813700,0,0,649524928,0,0,0,7723,9999,0,0,197,11,0,1980-01-06T03:07:31,1633357493.6366649,2021-10-04T17:24:53,0.0,0.0,0.0
315965257,589000,457355,138311000,0,2178,0,76,637813700,0,0,649525120,0,0,0,7771,9999,0,0,95,11,0,1980-01-06T03:07:37,1633357499.3282728,2021-10-04T17:24:59,0.0,0.0,0.0
315965265,615000,465373,138319000,0,2178,0,76,637813700,0,0,649525440,0,0,0,7835,9999,0,0,46,11,0,1980-01-06T03:07:45,1633357507.317044,2021-10-04T17:25:07,0.0,0.0,0.0
315965270,751000,470504,138324000,0,2178,0,76,637813700,0,0,649525632,0,0,0,7875,9999,0,0,177,11,0,1980-01-06T03:07:50,1633357512.3667889,2021-10-04T17:25:12,0.0,0.0,0.0
315965274,607000,474356,138328000,0,2178,0,76,637813700,0,0,649525824,0,0,0,7907,9999,0,0,16,11,0,1980-01-06T03:07:54,1633357517.367064,2021-10-04T17:25:17,0.0,0.0,0.0
315965279,596000,479340,138333000,0,2178,0,76,637813700,0,0,649526016,0,0,0,7946,9999,0,0,144,11,0,1980-01-06T03:07:59,1633357520.2869,2021-10-04T17:25:20,0.0,0.0,0.0
315965284,586000,484324,138338000,0,2178,0,76,637813700,0,0,649526272,0,0,0,7985,9999,0,0,16,11,0,1980-01-06T03:08:04,1633357525.866477,2021-10-04T17:25:25,0.0,0.0,0.0
315965287,588000,487324,138341000,0,2178,0,76,637813700,0,0,649526272,0,0,0,8009,9999,0,0,91,11,0,1980-01-06T03:08:07,1633357530.306272,2021-10-04T17:25:30,0.0,0.0,0.0
315965297,617000,497343,138351000,0,2178,0,76,637813700,0,0,649526720,0,0,0,8086,9999,0,0,83,11,0,1980-01-06T03:08:17,1633357541.606745,2021-10-04T17:25:41,0.0,0.0,0.0
315965302,605000,502326,138356000,0,2178,0,76,637813700,0,0,649526976,0,0,0,8125,9999,0,0,211,11,0,1980-01-06T03:08:22,1633357544.586736,2021-10-04T17:25:44,0.0,0.0,0.0
315965306,775000,506492,138360000,0,2178,0,76,637813700,0,0,649527168,0,0,0,8156,9999,0,0,61,11,0,1980-01-06T03:08:26,1633357549.588213,2021-10-04T17:25:49,0.0,0.0,0.0
315965311,613000,511325,138365000,0,2178,0,76,637813700,0,0,649527424,0,0,0,8194,9999,0,0,186,11,0,1980-01-06T03:08:31,1633357554.646517,2021-10-04T17:25:54,0.0,0.0,0.0
315965315,633000,515341,138369000,0,2178,0,76,637813700,0,0,649527552,0,0,0,8224,9999,0,0,33,11,0,1980-01-06T03:08:35,1633357557.6465678,2021-10-04T17:25:57,0.0,0.0,0.0
315965321,636000,521338,138375000,0,2178,0,76,637813700,0,0,649527872,0,0,0,8270,9999,0,0,187,11,0,1980-01-06T03:08:41,1633357562.6465929,2021-10-04T17:26:02,0.0,0.0,0.0
315965326,672000,526369,138380000,0,2178,0,76,637813700,0,0,649528064,0,0,0,8307,9999,0,0,60,11,0,1980-01-06T03:08:46,1633357568.266705,2021-10-04T17:26:08,0.0,0.0,0.0
315965334,650000,534339,138388000,0,2178,0,76,637813700,0,0,649528512,0,0,0,8367,9999,0,0,4,11,0,1980-01-06T03:08:54,1633357576.236924,2021-10-04T17:26:16,0.0,0.0,0.0
315965339,638000,539322,138393000,0,2178,0,76,637813700,0,0,649528704,0,0,0,8405,9999,0,0,132,11,0,1980-01-06T03:08:59,1633357581.866508,2021-10-04T17:26:21,0.0,0.0,0.0
315965344,678000,544357,138398000,0,2178,0,76,637813700,0,0,649528960,0,0,0,8442,9999,0,0,4,11,0,1980-01-06T03:09:04,1633357586.3865168,2021-10-04T17:26:26,0.0,0.0,0.0
315965353,684000,553354,138407000,0,2178,0,76,637813700,0,0,649529408,0,0,0,8508,9999,0,0,226,11,0,1980-01-06T03:09:13,1633357594.9767609,2021-10-04T17:26:34,0.0,0.0,0.0
315965357,655000,557321,138411000,0,2178,0,76,637813700,0,0,649529728,0,0,0,8538,9999,0,0,71,11,0,1980-01-06T03:09:17,1633357600.057132,2021-10-04T17:26:40,0.0,0.0,0.0
315965361,674000,561336,138415000,0,2178,0,76,637813700,0,0,649530048,0,0,0,8567,9999,0,0,174,11,0,1980-01-06T03:09:21,1633357605.1073048,2021-10-04T17:26:45,0.0,0.0,0.0
315965367,677000,567333,138421000,0,2178,0,76,637813700,0,0,649530624,0,0,0,8610,9999,0,0,72,11,0,1980-01-06T03:09:27,1633357610.696552,2021-10-04T17:26:50,0.0,0.0,0.0
315965371,697000,571350,138425000,0,2178,0,76,637813700,0,0,649530944,0,0,0,8639,9999,0,0,175,11,0,1980-01-06T03:09:31,1633357613.126853,2021-10-04T17:26:53,0.0,0.0,0.0
315965376,686000,576333,138430000,0,2178,0,76,637813700,0,0,649531392,0,0,0,8675,9999,0,0,47,11,0,1980-01-06T03:09:36,1633357618.156924,2021-10-04T17:26:58,0.0,0.0,0.0
315965381,721000,581363,138435000,0,2178,0,76,637813700,0,0,649531840,0,0,0,8711,9999,0,0,176,11,0,1980-01-06T03:09:41,1633357623.8272529,2021-10-04T17:27:03,0.0,0.0,0.0
315965385,691000,585329,138439000,0,2178,0,76,637813700,0,0,649532224,0,0,0,8740,9999,0,0,22,11,0,1980-01-06T03:09:45,1633357628.856557,2021-10-04T17:27:08,0.0,0.0,0.0
315965389,700000,589334,138443000,0,2178,0,76,637813700,0,0,649532544,0,0,0,8769,9999,0,0,120,11,0,1980-01-06T03:09:49,1633357631.7967288,2021-10-04T17:27:11,0.0,0.0,0.0
315965395,702000,595330,138449000,0,2178,0,76,637813700,0,0,649533120,0,0,0,8811,9999,0,0,18,11,0,1980-01-06T03:09:55,1633357637.4466279,2021-10-04T17:27:17,0.0,0.0,0.0
315965399,723000,599348,138453000,0,2178,0,76,637813700,0,0,649533504,0,0,0,8840,9999,0,0,121,11,0,1980-01-06T03:09:59,1633357642.516924,2021-10-04T17:27:22,0.0,0.0,0.0
315965404,712000,604331,138458000,0,2178,0,76,637813700,0,0,649534016,0,0,0,8875,9999,0,0,246,11,0,1980-01-06T03:10:04,1633357647.587189,2021-10-04T17:27:27,0.0,0.0,0.0
315965409,701000,609315,138463000,0,2178,0,76,637813700,0,0,649534464,0,0,0,8910,9999,0,0,113,11,0,1980-01-06T03:10:09,1633357651.1168048,2021-10-04T17:27:31,0.0,0.0,0.0
315965413,720000,613330,138467000,0,2178,0,76,637813700,0,0,649534784,0,0,0,8938,9999,0,0,213,11,0,1980-01-06T03:10:13,1633357655.577081,2021-10-04T17:27:35,0.0,0.0,0.0
315965418,754000,618359,138472000,0,2178,0,76,637813700,0,0,649535296,0,0,0,8973,9999,0,0,86,11,0,1980-01-06T03:10:18,1633357660.6079,2021-10-04T17:27:40,0.0,0.0,0.0
315965423,742000,623342,138477000,0,2178,0,76,637813700,0,0,649535808,0,0,0,9008,9999,0,0,214,11,0,1980-01-06T03:10:23,1633357666.236876,2021-10-04T17:27:46,0.0,0.0,0.0
315965427,762000,627359,138481000,0,2178,0,76,637813700,0,0,649536128,0,0,0,9035,9999,0,0,61,11,0,1980-01-06T03:10:27,1633357669.2167609,2021-10-04T17:27:49,0.0,0.0,0.0
315965432,900000,632491,138486000,0,2178,0,76,637813700,0,0,649536704,0,0,0,9070,9999,0,0,192,11,0,1980-01-06T03:10:32,1633357674.2668328,2021-10-04T17:27:54,0.0,0.0,0.0
315965437,737000,637323,138491000,0,2178,0,76,637813700,0,0,649537152,0,0,0,9104,9999,0,0,61,11,0,1980-01-06T03:10:37,1633357679.837061,2021-10-04T17:27:59,0.0,0.0,0.0
315965441,757000,641339,138495000,0,2178,0,76,637813700,0,0,649537600,0,0,0,9132,9999,0,0,164,11,0,1980-01-06T03:10:41,1633357684.879036,2021-10-04T17:28:04,0.0,0.0,0.0
315965446,745000,646322,138500000,0,2178,0,76,637813700,0,0,649538112,0,0,0,9166,9999,0,0,36,11,0,1980-01-06T03:10:46,1633357687.807533,2021-10-04T17:28:07,0.0,0.0,0.0
315965450,916000,650489,138504000,0,2178,0,76,637813700,0,0,649538496,0,0,0,9193,9999,0,0,142,11,0,1980-01-06T03:10:50,1633357693.43712,2021-10-04T17:28:13,0.0,0.0,0.0
315965455,788000,655356,138509000,0,2178,0,76,637813700,0,0,649539008,0,0,0,9227,9999,0,0,7,11,0,1980-01-06T03:10:55,1633357697.907052,2021-10-04T17:28:17,0.0,0.0,0.0
315965459,756000,659320,138513000,0,2178,0,76,637813700,0,0,649539456,0,0,0,9254,9999,0,0,109,11,0,1980-01-06T03:10:59,1633357700.847249,2021-10-04T17:28:20,0.0,0.0,0.0
315965464,794000,664353,138518000,0,2178,0,76,637813700,0,0,649539968,0,0,0,9288,9999,0,0,233,11,0,1980-01-06T03:11:04,1633357706.4767199,2021-10-04T17:28:26,0.0,0.0,0.0
315965468,966000,668520,138522000,0,2178,0,76,637813700,0,0,649540416,0,0,0,9315,9999,0,0,79,11,0,1980-01-06T03:11:08,1633357711.527837,2021-10-04T17:28:31,0.0,0.0,0.0
315965478,789000,678334,138532000,0,2178,0,76,637813700,0,0,649541504,0,0,0,9382,9999,0,0,74,11,0,1980-01-06T03:11:18,1633357719.5169969,2021-10-04T17:28:39,0.0,0.0,0.0
315965483,776000,683316,138537000,0,2178,0,76,637813700,0,0,649542080,0,0,0,9415,9999,0,0,202,11,0,1980-01-06T03:11:23,1633357725.098196,2021-10-04T17:28:45,0.0,0.0,0.0
315965488,814000,688350,138542000,0,2178,0,76,637813700,0,0,649542592,0,0,0,9448,9999,0,0,75,11,0,1980-01-06T03:11:28,1633357730.170009,2021-10-04T17:28:50,0.0,0.0,0.0
315965492,983000,692515,138546000,0,2178,0,76,637813700,0,0,649542976,0,0,0,9474,9999,0,0,181,11,0,1980-01-06T03:11:32,1633357735.786948,2021-10-04T17:28:55,0.0,0.0,0.0
315965497,821000,697347,138551000,0,2178,0,76,637813700,0,0,649543616,0,0,0,9507,9999,0,0,50,11,0,1980-01-06T03:11:37,1633357740.806932,2021-10-04T17:29:00,0.0,0.0,0.0
315965502,808000,702329,138556000,0,2178,0,76,637813700,0,0,649544192,0,0,0,9540,9999,0,0,178,11,0,1980-01-06T03:11:42,1633357743.797025,2021-10-04T17:29:03,0.0,0.0,0.0
315965506,828000,706345,138560000,0,2178,0,76,637813700,0,0,649544640,0,0,0,9566,9999,0,0,25,11,0,1980-01-06T03:11:46,1633357748.887981,2021-10-04T17:29:08,0.0,0.0,0.0
315965511,802000,711315,138565000,0,2178,0,76,637813700,0,0,649545216,0,0,0,9599,9999,0,0,148,11,0,1980-01-06T03:11:51,1633357753.897593,2021-10-04T17:29:13,0.0,0.0,0.0
315965515,822000,715331,138569000,0,2178,0,76,637813700,0,0,649545664,0,0,0,9625,9999,0,0,251,11,0,1980-01-06T03:11:55,1633357756.796936,2021-10-04T17:29:16,0.0,0.0,0.0
315965521,830000,721332,138575000,0,2178,0,76,637813700,0,0,649546368,0,0,0,9664,9999,0,0,145,11,0,1980-01-06T03:12:01,1633357762.5271769,2021-10-04T17:29:22,0.0,0.0,0.0
315965524,832000,724331,138578000,0,2178,0,76,637813700,0,0,649546752,0,0,0,9683,9999,0,0,219,11,0,1980-01-06T03:12:04,1633357767.5375369,2021-10-04T17:29:27,0.0,0.0,0.0
315965530,832000,730325,138584000,0,2178,0,76,637813700,0,0,649547456,0,0,0,9722,9999,0,0,112,11,0,1980-01-06T03:12:10,1633357772.5988688,2021-10-04T17:29:32,0.0,0.0,0.0
315965535,2000,734492,138588000,0,2178,0,76,637813700,0,0,649547968,0,0,0,9748,9999,0,0,218,11,0,1980-01-06T03:12:15,1633357778.287588,2021-10-04T17:29:38,0.0,0.0,0.0
315965538,873000,738358,138592000,0,2178,0,76,637813700,0,0,649548480,0,0,0,9773,9999,0,0,62,11,0,1980-01-06T03:12:18,1633357780.6672049,2021-10-04T17:29:40,0.0,0.0,0.0
315965543,860000,743340,138597000,0,2178,0,76,637813700,0,0,649549056,0,0,0,9805,9999,0,0,190,11,0,1980-01-06T03:12:23,1633357786.2874289,2021-10-04T17:29:46,0.0,0.0,0.0
315965548,849000,748325,138602000,0,2178,0,76,637813700,0,0,649549632,0,0,0,9837,9999,0,0,62,11,0,1980-01-06T03:12:28,1633357791.3578088,2021-10-04T17:29:51,0.0,0.0,0.0
315965553,887000,753358,138607000,0,2178,0,76,637813700,0,0,649550272,0,0,0,9869,9999,0,0,191,11,0,1980-01-06T03:12:33,1633357794.336889,2021-10-04T17:29:54,0.0,0.0,0.0
315965557,856000,757323,138611000,0,2178,0,76,637813700,0,0,649550784,0,0,0,9894,9999,0,0,37,11,0,1980-01-06T03:12:37,1633357799.968561,2021-10-04T17:29:59,0.0,0.0,0.0
315965562,894000,762355,138616000,0,2178,0,76,637813700,0,0,649551424,0,0,0,9925,9999,0,0,166,11,0,1980-01-06T03:12:42,1633357805.058729,2021-10-04T17:30:05,0.0,0.0,0.0
315965571,901000,771353,138625000,0,2178,0,76,637813700,0,0,649552576,0,0,0,9982,9999,0,0,141,11,0,1980-01-06T03:12:51,1633357813.0869958,2021-10-04T17:30:13,0.0,0.0,0.0
315965577,39000,776486,138630000,0,2178,0,76,637813700,0,0,649553280,0,0,0,10013,9999,0,0,14,11,0,1980-01-06T03:12:57,1633357818.758241,2021-10-04T17:30:18,0.0,0.0,0.0
315965580,897000,780341,138634000,0,2178,0,76,637813700,0,0,649553792,0,0,0,10038,9999,0,0,106,11,0,1980-01-06T03:13:00,1633357823.8172479,2021-10-04T17:30:23,0.0,0.0,0.0
315965586,903000,786340,138640000,0,2178,0,76,637813700,0,0,649554624,0,0,0,10075,9999,0,0,254,11,0,1980-01-06T03:13:06,1633357828.956873,2021-10-04T17:30:28,0.0,0.0,0.0
315965590,923000,790357,138644000,0,2178,0,76,637813700,0,0,649555136,0,0,0,10100,9999,0,0,101,11,0,1980-01-06T03:13:10,1633357831.969585,2021-10-04T17:30:31,0.0,0.0,0.0
315965595,909000,795337,138649000,0,2178,0,76,637813700,0,0,649555776,0,0,0,10131,9999,0,0,229,11,0,1980-01-06T03:13:15,1633357837.057169,2021-10-04T17:30:37,0.0,0.0,0.0
315965599,928000,799353,138653000,0,2178,0,76,637813700,0,0,649556416,0,0,0,10156,9999,0,0,76,11,0,1980-01-06T03:13:19,1633357842.7191448,2021-10-04T17:30:42,0.0,0.0,0.0
315965604,916000,804335,138658000,0,2178,0,76,637813700,0,0,649557056,0,0,0,10186,9999,0,0,204,11,0,1980-01-06T03:13:24,1633357847.7872288,2021-10-04T17:30:47,0.0,0.0,0.0
315965608,941000,808356,138662000,0,2178,0,76,637813700,0,0,649557632,0,0,0,10211,9999,0,0,51,11,0,1980-01-06T03:13:28,1633357850.707545,2021-10-04T17:30:50,0.0,0.0,0.0
315965614,945000,814355,138668000,0,2178,0,76,637813700,0,0,649558464,0,0,0,10248,9999,0,0,205,11,0,1980-01-06T03:13:34,1633357855.7468688,2021-10-04T17:30:55,0.0,0.0,0.0
315965619,67000,818472,138672000,0,2178,0,76,637813700,0,0,649559040,0,0,0,10272,9999,0,0,54,11,0,1980-01-06T03:13:39,1633357860.816985,2021-10-04T17:31:00,0.0,0.0,0.0
315965622,938000,822340,138676000,0,2178,0,76,637813700,0,0,649559616,0,0,0,10296,9999,0,0,154,11,0,1980-01-06T03:13:42,1633357865.8770928,2021-10-04T17:31:05,0.0,0.0,0.0
315965628,944000,828340,138682000,0,2178,0,76,637813700,0,0,649560448,0,0,0,10333,9999,0,0,52,11,0,1980-01-06T03:13:48,1633357869.3970609,2021-10-04T17:31:09,0.0,0.0,0.0
315965631,951000,831344,138685000,0,2178,0,76,637813700,0,0,649560896,0,0,0,10351,9999,0,0,129,11,0,1980-01-06T03:13:51,1633357874.4776008,2021-10-04T17:31:14,0.0,0.0,0.0
315965637,89000,836476,138690000,0,2178,0,76,637813700,0,0,649561600,0,0,0,10381,9999,0,0,255,11,0,1980-01-06T03:13:57,1633357878.9470608,2021-10-04T17:31:18,0.0,0.0,0.0
315965645,983000,845362,138699000,0,2178,0,76,637813700,0,0,649562944,0,0,0,10435,9999,0,0,216,11,0,1980-01-06T03:14:05,1633357887.487196,2021-10-04T17:31:27,0.0,0.0,0.0
315965650,970000,850344,138704000,0,2178,0,76,637813700,0,0,649563712,0,0,0,10465,9999,0,0,88,11,0,1980-01-06T03:14:10,1633357892.57726,2021-10-04T17:31:32,0.0,0.0,0.0
315965655,963000,855332,138709000,0,2178,0,76,637813700,0,0,649564480,0,0,0,10495,9999,0,0,216,11,0,1980-01-06T03:14:15,1633357898.197717,2021-10-04T17:31:38,0.0,0.0,0.0
315965659,982000,859347,138713000,0,2178,0,76,637813700,0,0,649565056,0,0,0,10519,9999,0,0,63,11,0,1980-01-06T03:14:19,1633357900.557044,2021-10-04T17:31:40,0.0,0.0,0.0
315965664,967000,864327,138718000,0,2178,0,76,637813700,0,0,649565824,0,0,0,10548,9999,0,0,191,11,0,1980-01-06T03:14:24,1633357906.2471318,2021-10-04T17:31:46,0.0,0.0,0.0
315965670,972000,870326,138724000,0,2178,0,76,637813700,0,0,649566784,0,0,0,10584,9999,0,0,89,11,0,1980-01-06T03:14:30,1633357911.877053,2021-10-04T17:31:51,0.0,0.0,0.0
315965673,974000,873324,138727000,0,2178,0,76,637813700,0,0,649567232,0,0,0,10601,9999,0,0,166,11,0,1980-01-06T03:14:33,1633357916.9289289,2021-10-04T17:31:56,0.0,0.0,0.0
315965679,162000,878508,138732000,0,2178,0,76,637813700,0,0,649568000,0,0,0,10631,9999,0,0,42,11,0,1980-01-06T03:14:39,1633357921.957273,2021-10-04T17:32:01,0.0,0.0,0.0
315965684,0,883341,138737000,0,2178,0,76,637813700,0,0,649568768,0,0,0,10660,9999,0,0,167,11,0,1980-01-06T03:14:44,1633357925.4769719,2021-10-04T17:32:05,0.0,0.0,0.0
315965688,20000,887357,138741000,0,2178,0,76,637813700,0,0,649569472,0,0,0,10684,9999,0,0,14,11,0,1980-01-06T03:14:48,1633357929.956929,2021-10-04T17:32:09,0.0,0.0,0.0
315965693,7000,892339,138746000,0,2178,0,76,637813700,0,0,649570240,0,0,0,10713,9999,0,0,139,11,0,1980-01-06T03:14:53,1633357934.997052,2021-10-04T17:32:14,0.0,0.0,0.0
315965703,180000,902501,138756000,0,2178,0,76,637813700,0,0,649571904,0,0,0,10771,9999,0,0,134,11,0,1980-01-06T03:15:03,1633357943.607264,2021-10-04T17:32:23,0.0,0.0,0.0
315965706,19000,905338,138759000,0,2178,0,76,637813700,0,0,649572416,0,0,0,10788,9999,0,0,203,11,0,1980-01-06T03:15:06,1633357948.637497,2021-10-04T17:32:28,0.0,0.0,0.0
315965712,27000,911339,138765000,0,2178,0,76,637813700,0,0,649573376,0,0,0,10823,9999,0,0,101,11,0,1980-01-06T03:15:12,1633357954.3072798,2021-10-04T17:32:34,0.0,0.0,0.0
315965716,45000,915354,138769000,0,2178,0,76,637813700,0,0,649574080,0,0,0,10846,9999,0,0,204,11,0,1980-01-06T03:15:16,1633357956.676957,2021-10-04T17:32:36,0.0,0.0,0.0
315965720,12000,919316,138773000,0,2178,0,76,637813700,0,0,649574720,0,0,0,10869,9999,0,0,50,11,0,1980-01-06T03:15:20,1633357961.777173,2021-10-04T17:32:41,0.0,0.0,0.0
315965726,66000,925364,138779000,0,2178,0,76,637813700,0,0,649575744,0,0,0,10904,9999,0,0,205,11,0,1980-01-06T03:15:26,1633357968.01704,2021-10-04T17:32:48,0.0,0.0,0.0
315965730,36000,929331,138783000,0,2178,0,76,637813700,0,0,649576448,0,0,0,10927,9999,0,0,51,11,0,1980-01-06T03:15:30,1633357972.5176198,2021-10-04T17:32:52,0.0,0.0,0.0
315965735,74000,934364,138788000,0,2178,0,76,637813700,0,0,649577280,0,0,0,10955,9999,0,0,180,11,0,1980-01-06T03:15:35,1633357975.487185,2021-10-04T17:32:55,0.0,0.0,0.0
315965740,64000,939349,138793000,0,2178,0,76,637813700,0,0,649578176,0,0,0,10984,9999,0,0,52,11,0,1980-01-06T03:15:40,1633357981.157088,2021-10-04T17:33:01,0.0,0.0,0.0
315965744,35000,943316,138797000,0,2178,0,76,637813700,0,0,649578880,0,0,0,11006,9999,0,0,154,11,0,1980-01-06T03:15:44,1633357986.216888,2021-10-04T17:33:06,0.0,0.0,0.0
315965748,56000,947333,138801000,0,2178,0,76,637813700,0,0,649579584,0,0,0,11029,9999,0,0,1,11,0,1980-01-06T03:15:48,1633357990.68794,2021-10-04T17:33:10,0.0,0.0,0.0
315965755,81000,954351,138808000,0,2178,0,76,637813700,0,0,649580864,0,0,0,11069,9999,0,0,174,11,0,1980-01-06T03:15:55,1633357996.937005,2021-10-04T17:33:16,0.0,0.0,0.0
315965759,91000,958357,138812000,0,2178,0,76,637813700,0,0,649581568,0,0,0,11091,9999,0,0,13,11,0,1980-01-06T03:15:59,1633357999.927945,2021-10-04T17:33:19,0.0,0.0,0.0
315965764,79000,963340,138817000,0,2178,0,76,637813700,0,0,649582464,0,0,0,11119,9999,0,0,140,11,0,1980-01-06T03:16:04,1633358004.966852,2021-10-04T17:33:24,0.0,0.0,0.0
315965769,216000,968472,138822000,0,2178,0,76,637813700,0,0,649583424,0,0,0,11147,9999,0,0,15,11,0,1980-01-06T03:16:09,1633358010.637632,2021-10-04T17:33:30,0.0,0.0,0.0
315965778,123000,977370,138831000,0,2178,0,76,637813700,0,0,649585024,0,0,0,11198,9999,0,0,244,11,0,1980-01-06T03:16:18,1633358018.566792,2021-10-04T17:33:38,0.0,0.0,0.0
315965782,95000,981338,138835000,0,2178,0,76,637813700,0,0,649585920,0,0,0,11220,9999,0,0,90,11,0,1980-01-06T03:16:22,1633358023.617333,2021-10-04T17:33:43,0.0,0.0,0.0
315965786,115000,985354,138839000,0,2178,0,76,637813700,0,0,649586816,0,0,0,11242,9999,0,0,193,11,0,1980-01-06T03:16:26,1633358028.666957,2021-10-04T17:33:48,0.0,0.0,0.0
315965791,105000,990339,138844000,0,2178,0,76,637813700,0,0,649587904,0,0,0,11270,9999,0,0,65,11,0,1980-01-06T03:16:31,1633358031.587884,2021-10-04T17:33:51,0.0,0.0,0.0
315965795,123000,994353,138848000,0,2178,0,76,637813700,0,0,649588800,0,0,0,11292,9999,0,0,168,11,0,1980-01-06T03:16:35,1633358037.2176719,2021-10-04T17:33:57,0.0,0.0,0.0
315965800,112000,999337,138853000,0,2178,0,76,637813700,0,0,649589952,0,0,0,11320,9999,0,0,40,11,0,1980-01-06T03:16:40,1633358042.217108,2021-10-04T17:34:02,0.0,0.0,0.0
315965805,250000,1004470,138858000,0,2178,0,76,637813700,0,0,649591040,0,0,0,11347,9999,0,0,171,11,0,1980-01-06T03:16:45,1633358047.3168519,2021-10-04T17:34:07,0.0,0.0,0.0
315965810,139000,1009354,138863000,0,2178,0,76,637813700,0,0,649592192,0,0,0,11375,9999,0,0,36,11,0,1980-01-06T03:16:50,1633358050.317081,2021-10-04T17:34:10,0.0,0.0,0.0
315965814,109000,1013320,138867000,0,2178,0,76,637813700,0,0,649593088,0,0,0,11397,9999,0,0,134,11,0,1980-01-06T03:16:54,1633358055.377121,2021-10-04T17:34:15,0.0,0.0,0.0
315965819,132000,1018338,138872000,0,2178,0,76,637813700,0,0,649594240,0,0,0,11424,9999,0,0,255,11,0,1980-01-06T03:16:59,1633358060.456825,2021-10-04T17:34:20,0.0,0.0,0.0
315965824,122000,1023323,138877000,0,2178,0,76,637813700,0,0,649595392,0,0,0,11452,9999,0,0,127,11,0,1980-01-06T03:17:04,1633358066.157289,2021-10-04T17:34:26,0.0,0.0,0.0
315965828,143000,1027340,138881000,0,2178,0,76,637813700,0,0,649596352,0,0,0,11473,9999,0,0,230,11,0,1980-01-06T03:17:08,1633358069.127557,2021-10-04T17:34:29,0.0,0.0,0.0
315965833,130000,1032322,138886000,0,2178,0,76,637813700,0,0,649597568,0,0,0,11501,9999,0,0,102,11,0,1980-01-06T03:17:13,1633358074.227108,2021-10-04T17:34:34,0.0,0.0,0.0
315965838,169000,1037356,138891000,0,2178,0,76,637813700,0,0,649598720,0,0,0,11528,9999,0,0,231,11,0,1980-01-06T03:17:18,1633358079.866868,2021-10-04T17:34:39,0.0,0.0,0.0
315965843,156000,1042338,138896000,0,2178,0,76,637813700,0,0,649599936,0,0,0,11555,9999,0,0,103,11,0,1980-01-06T03:17:23,1633358085.506712,2021-10-04T17:34:45,0.0,0.0,0.0
315965849,162000,1048338,138902000,0,2178,0,76,637813700,0,0,649601344,0,0,0,11587,9999,0,0,1,11,0,1980-01-06T03:17:29,1633358091.1476169,2021-10-04T17:34:51,0.0,0.0,0.0
315965852,165000,1051338,138905000,0,2178,0,76,637813700,0,0,649602112,0,0,0,11603,9999,0,0,78,11,0,1980-01-06T03:17:32,1633358094.098224,2021-10-04T17:34:54,0.0,0.0,0.0
315965857,154000,1056322,138910000,0,2178,0,76,637813700,0,0,649603328,0,0,0,11630,9999,0,0,206,11,0,1980-01-06T03:17:37,1633358099.137204,2021-10-04T17:34:59,0.0,0.0,0.0
315965862,192000,1061355,138915000,0,2178,0,76,637813700,0,0,649604480,0,0,0,11657,9999,0,0,79,11,0,1980-01-06T03:17:42,1633358104.206773,2021-10-04T17:35:04,0.0,0.0,0.0
315965867,180000,1066338,138920000,0,2178,0,76,637813700,0,0,649605760,0,0,0,11684,9999,0,0,203,11,0,1980-01-06T03:17:47,1633358109.289784,2021-10-04T17:35:09,0.0,0.0,0.0
315965871,349000,1070503,138924000,0,2178,0,76,637813700,0,0,649606720,0,0,0,11705,9999,0,0,49,11,0,1980-01-06T03:17:51,1633358112.216753,2021-10-04T17:35:12,0.0,0.0,0.0
315965877,355000,1076503,138930000,0,2178,0,76,637813700,0,0,649608256,0,0,0,11737,9999,0,0,200,11,0,1980-01-06T03:17:57,1633358117.896749,2021-10-04T17:35:17,0.0,0.0,0.0
315965880,195000,1079341,138933000,0,2178,0,76,637813700,0,0,649609024,0,0,0,11753,9999,0,0,13,11,0,1980-01-06T03:18:00,1633358124.857153,2021-10-04T17:35:24,0.0,0.0,0.0
315965885,183000,1084323,138938000,0,2178,0,76,637813700,0,0,649610240,0,0,0,11780,9999,0,0,141,11,0,1980-01-06T03:18:05,1633358129.94736,2021-10-04T17:35:29,0.0,0.0,0.0
315965892,206000,1091339,138945000,0,2178,0,76,637813700,0,0,649612032,0,0,0,11817,9999,0,0,65,11,0,1980-01-06T03:18:12,1633358132.9469879,2021-10-04T17:35:32,0.0,0.0,0.0
315965897,195000,1096323,138950000,0,2178,0,76,637813700,0,0,649613312,0,0,0,11843,9999,0,0,193,11,0,1980-01-06T03:18:17,1633358138.0466409,2021-10-04T17:35:38,0.0,0.0,0.0
315965901,363000,1100487,138954000,0,2178,0,76,637813700,0,0,649614336,0,0,0,11864,9999,0,0,43,11,0,1980-01-06T03:18:21,1633358143.1067438,2021-10-04T17:35:43,0.0,0.0,0.0
315965906,201000,1105320,138959000,0,2178,0,76,637813700,0,0,649615680,0,0,0,11891,9999,0,0,168,11,0,1980-01-06T03:18:26,1633358148.8473039,2021-10-04T17:35:48,0.0,0.0,0.0
315965911,237000,1110351,138964000,0,2178,0,76,637813700,0,0,649616960,0,0,0,11917,9999,0,0,41,11,0,1980-01-06T03:18:31,1633358151.7878158,2021-10-04T17:35:51,0.0,0.0,0.0
315965915,206000,1114316,138968000,0,2178,0,76,637813700,0,0,649617984,0,0,0,11938,9999,0,0,143,11,0,1980-01-06T03:18:35,1633358156.917096,2021-10-04T17:35:56,0.0,0.0,0.0
315965920,241000,1119346,138973000,0,2178,0,76,637813700,0,0,649619328,0,0,0,11964,9999,0,0,16,11,0,1980-01-06T03:18:40,1633358162.5872319,2021-10-04T17:36:02,0.0,0.0,0.0
315965924,261000,1123362,138977000,0,2178,0,76,637813700,0,0,649620352,0,0,0,11985,9999,0,0,116,11,0,1980-01-06T03:18:44,1633358167.6770358,2021-10-04T17:36:07,0.0,0.0,0.0
315965929,248000,1128345,138982000,0,2178,0,76,637813700,0,0,649621760,0,0,0,12011,9999,0,0,239,11,0,1980-01-06T03:18:49,1633358170.0283039,2021-10-04T17:36:10,0.0,0.0,0.0
315965934,235000,1133326,138987000,0,2178,0,76,637813700,0,0,649623104,0,0,0,12037,9999,0,0,108,11,0,1980-01-06T03:18:54,1633358175.77682,2021-10-04T17:36:15,0.0,0.0,0.0
315965940,291000,1139376,138993000,0,2178,0,76,637813700,0,0,649624704,0,0,0,12068,9999,0,0,7,11,0,1980-01-06T03:19:00,1633358183.34656,2021-10-04T17:36:23,0.0,0.0,0.0
315965943,394000,1142477,138996000,0,2178,0,76,637813700,0,0,649625472,0,0,0,12084,9999,0,0,86,11,0,1980-01-06T03:19:03,1633358188.446925,2021-10-04T17:36:28,0.0,0.0,0.0
315965951,274000,1150348,139004000,0,2178,0,76,637813700,0,0,649627712,0,0,0,12125,9999,0,0,28,11,0,1980-01-06T03:19:11,1633358192.03696,2021-10-04T17:36:32,0.0,0.0,0.0
315965955,448000,1154517,139008000,0,2178,0,76,637813700,0,0,649628800,0,0,0,12146,9999,0,0,134,11,0,1980-01-06T03:19:15,1633358197.106669,2021-10-04T17:36:37,0.0,0.0,0.0
315965960,284000,1159349,139013000,0,2178,0,76,637813700,0,0,649630208,0,0,0,12171,9999,0,0,3,11,0,1980-01-06T03:19:20,1633358201.5967278,2021-10-04T17:36:41,0.0,0.0,0.0
315965965,271000,1164331,139018000,0,2178,0,76,637813700,0,0,649631616,0,0,0,12197,9999,0,0,131,11,0,1980-01-06T03:19:25,1633358207.276968,2021-10-04T17:36:47,0.0,0.0,0.0
315965969,291000,1168348,139022000,0,2178,0,76,637813700,0,0,649632768,0,0,0,12217,9999,0,0,234,11,0,1980-01-06T03:19:29,1633358210.2065809,2021-10-04T17:36:50,0.0,0.0,0.0
315965974,279000,1173331,139027000,0,2178,0,76,637813700,0,0,649634112,0,0,0,12243,9999,0,0,106,11,0,1980-01-06T03:19:34,1633358215.2767448,2021-10-04T17:36:55,0.0,0.0,0.0
315965979,467000,1178514,139032000,0,2178,0,76,637813700,0,0,649635520,0,0,0,12268,9999,0,0,237,11,0,1980-01-06T03:19:39,1633358220.937469,2021-10-04T17:37:00,0.0,0.0,0.0
315965983,288000,1182330,139036000,0,2178,0,76,637813700,0,0,649636672,0,0,0,12289,9999,0,0,76,11,0,1980-01-06T03:19:43,1633358227.937173,2021-10-04T17:37:07,0.0,0.0,0.0
315965987,307000,1186346,139040000,0,2178,0,76,637813700,0,0,649637824,0,0,0,12309,9999,0,0,175,11,0,1980-01-06T03:19:47,1633358230.8972409,2021-10-04T17:37:10,0.0,0.0,0.0
315965995,299000,1194329,139048000,0,2178,0,76,637813700,0,0,649640192,0,0,0,12350,9999,0,0,121,11,0,1980-01-06T03:19:55,1633358236.566653,2021-10-04T17:37:16,0.0,0.0,0.0
315965999,320000,1198347,139052000,0,2178,0,76,637813700,0,0,649641344,0,0,0,12370,9999,0,0,224,11,0,1980-01-06T03:19:59,1633358241.61692,2021-10-04T17:37:21,0.0,0.0,0.0
315966003,485000,1202510,139056000,0,2178,0,76,637813700,0,0,649642560,0,0,0,12377,9999,0,0,57,11,0,1980-01-06T03:20:03,1633358243.976388,2021-10-04T17:37:23,0.0,0.0,0.0
315966009,480000,1208501,139062000,0,2178,0,76,637813700,0,0,649644352,0,0,0,12400,9999,0,0,201,11,0,1980-01-06T03:20:09,1633358250.2866678,2021-10-04T17:37:30,0.0,0.0,0.0
315966013,339000,1212356,139066000,0,2178,0,76,637813700,0,0,649645568,0,0,0,12420,9999,0,0,40,11,0,1980-01-06T03:20:13,1633358254.807344,2021-10-04T17:37:34,0.0,0.0,0.0
315966018,326000,1217338,139071000,0,2178,0,76,637813700,0,0,649647040,0,0,0,12445,9999,0,0,168,11,0,1980-01-06T03:20:18,1633358259.906548,2021-10-04T17:37:39,0.0,0.0,0.0
315966023,314000,1222321,139076000,0,2178,0,76,637813700,0,0,649648512,0,0,0,12471,9999,0,0,40,11,0,1980-01-06T03:20:23,1633358265.547705,2021-10-04T17:37:45,0.0,0.0,0.0
315966027,483000,1226487,139080000,0,2178,0,76,637813700,0,0,649649728,0,0,0,12491,9999,0,0,146,11,0,1980-01-06T03:20:27,1633358268.5180569,2021-10-04T17:37:48,0.0,0.0,0.0
315966032,321000,1231320,139085000,0,2178,0,76,637813700,0,0,649651264,0,0,0,12516,9999,0,0,15,11,0,1980-01-06T03:20:32,1633358275.476505,2021-10-04T17:37:55,0.0,0.0,0.0
315966039,494000,1238486,139092000,0,2178,0,76,637813700,0,0,649653376,0,0,0,12550,9999,0,0,198,11,0,1980-01-06T03:20:39,1633358281.196712,2021-10-04T17:38:01,0.0,0.0,0.0
315966044,383000,1243370,139097000,0,2178,0,76,637813700,0,0,649654976,0,0,0,12575,9999,0,0,64,11,0,1980-01-06T03:20:44,1633358286.36724,2021-10-04T17:38:06,0.0,0.0,0.0
315966048,350000,1247332,139101000,0,2178,0,76,637813700,0,0,649656192,0,0,0,12595,9999,0,0,162,11,0,1980-01-06T03:20:48,1633358289.366605,2021-10-04T17:38:09,0.0,0.0,0.0
315966054,356000,1253333,139107000,0,2178,0,76,637813700,0,0,649658112,0,0,0,12625,9999,0,0,57,11,0,1980-01-06T03:20:54,1633358295.046336,2021-10-04T17:38:15,0.0,0.0,0.0
315966057,509000,1256482,139110000,0,2178,0,76,637813700,0,0,649659008,0,0,0,12640,9999,0,0,137,11,0,1980-01-06T03:20:57,1633358300.177173,2021-10-04T17:38:20,0.0,0.0,0.0
315966062,349000,1261317,139115000,0,2178,0,76,637813700,0,0,649660608,0,0,0,12664,9999,0,0,6,11,0,1980-01-06T03:21:02,1633358305.286917,2021-10-04T17:38:25,0.0,0.0,0.0
315966067,374000,1266337,139120000,0,2178,0,76,637813700,0,0,649662208,0,0,0,12689,9999,0,0,130,11,0,1980-01-06T03:21:07,1633358308.2765129,2021-10-04T17:38:28,0.0,0.0,0.0
315966072,361000,1271319,139125000,0,2178,0,76,637813700,0,0,649663936,0,0,0,12714,9999,0,0,2,11,0,1980-01-06T03:21:12,1633358313.3588688,2021-10-04T17:38:33,0.0,0.0,0.0
315966076,380000,1275335,139129000,0,2178,0,76,637813700,0,0,649665344,0,0,0,12733,9999,0,0,105,11,0,1980-01-06T03:21:16,1633358318.466485,2021-10-04T17:38:38,0.0,0.0,0.0
315966082,386000,1281335,139135000,0,2178,0,76,637813700,0,0,649667456,0,0,0,12763,9999,0,0,3,11,0,1980-01-06T03:21:22,1633358324.22666,2021-10-04T17:38:44,0.0,0.0,0.0
315966085,391000,1284337,139138000,0,2178,0,76,637813700,0,0,649668544,0,0,0,12777,9999,0,0,80,11,0,1980-01-06T03:21:25,1633358327.1862679,2021-10-04T17:38:47,0.0,0.0,0.0
315966090,379000,1289320,139143000,0,2178,0,76,637813700,0,0,649670336,0,0,0,12802,9999,0,0,208,11,0,1980-01-06T03:21:30,1633358332.316488,2021-10-04T17:38:52,0.0,0.0,0.0
315966095,415000,1294351,139148000,0,2178,0,76,637813700,0,0,649672128,0,0,0,12826,9999,0,0,81,11,0,1980-01-06T03:21:35,1633358337.4562318,2021-10-04T17:38:57,0.0,0.0,0.0
315966100,405000,1299336,139153000,0,2178,0,76,637813700,0,0,649673920,0,0,0,12851,9999,0,0,206,11,0,1980-01-06T03:21:40,1633358340.3775408,2021-10-04T17:39:00,0.0,0.0,0.0
315966104,425000,1303352,139157000,0,2178,0,76,637813700,0,0,649675392,0,0,0,12870,9999,0,0,49,11,0,1980-01-06T03:21:44,1633358345.496508,2021-10-04T17:39:05,0.0,0.0,0.0
315966110,429000,1309350,139163000,0,2178,0,76,637813700,0,0,649677568,0,0,0,12899,9999,0,0,198,11,0,1980-01-06T03:21:50,1633358351.206517,2021-10-04T17:39:11,0.0,0.0,0.0
315966114,451000,1313368,139167000,0,2178,0,76,637813700,0,0,649679104,0,0,0,12919,9999,0,0,45,11,0,1980-01-06T03:21:54,1633358356.3270118,2021-10-04T17:39:16,0.0,0.0,0.0
315966118,421000,1317334,139171000,0,2178,0,76,637813700,0,0,649680576,0,0,0,12938,9999,0,0,147,11,0,1980-01-06T03:21:58,1633358359.3061478,2021-10-04T17:39:19,0.0,0.0,0.0
315966123,610000,1322517,139176000,0,2178,0,76,637813700,0,0,649682432,0,0,0,12962,9999,0,0,23,11,0,1980-01-06T03:22:03,1633358364.928048,2021-10-04T17:39:24,0.0,0.0,0.0
315966128,433000,1327336,139181000,0,2178,0,76,637813700,0,0,649684288,0,0,0,12986,9999,0,0,143,11,0,1980-01-06T03:22:08,1633358369.986117,2021-10-04T17:39:29,0.0,0.0,0.0
315966133,421000,1332319,139186000,0,2178,0,76,637813700,0,0,649686144,0,0,0,13010,9999,0,0,15,11,0,1980-01-06T03:22:13,1633358375.086112,2021-10-04T17:39:35,0.0,0.0,0.0
315966137,445000,1336339,139190000,0,2178,0,76,637813700,0,0,649687680,0,0,0,13029,9999,0,0,118,11,0,1980-01-06T03:22:17,1633358380.7766728,2021-10-04T17:39:40,0.0,0.0,0.0
315966142,432000,1341321,139195000,0,2178,0,76,637813700,0,0,649689600,0,0,0,13053,9999,0,0,246,11,0,1980-01-06T03:22:22,1633358383.7565,2021-10-04T17:39:43,0.0,0.0,0.0
315966146,454000,1345339,139199000,0,2178,0,76,637813700,0,0,649691136,0,0,0,13072,9999,0,0,93,11,0,1980-01-06T03:22:26,1633358388.8464968,2021-10-04T17:39:48,0.0,0.0,0.0
315966152,459000,1351338,139205000,0,2178,0,76,637813700,0,0,649693376,0,0,0,13101,9999,0,0,247,11,0,1980-01-06T03:22:32,1633358393.967793,2021-10-04T17:39:53,0.0,0.0,0.0
315966156,476000,1355351,139209000,0,2178,0,76,637813700,0,0,649694976,0,0,0,13120,9999,0,0,93,11,0,1980-01-06T03:22:36,1633358396.8971078,2021-10-04T17:39:56,0.0,0.0,0.0
315966161,462000,1360332,139214000,0,2178,0,76,637813700,0,0,649696896,0,0,0,13144,9999,0,0,216,11,0,1980-01-06T03:22:41,1633358402.0364559,2021-10-04T17:40:02,0.0,0.0,0.0
315966165,633000,1364499,139218000,0,2178,0,76,637813700,0,0,649698432,0,0,0,13163,9999,0,0,62,11,0,1980-01-06T03:22:45,1633358407.726028,2021-10-04T17:40:07,0.0,0.0,0.0
315966170,472000,1369334,139223000,0,2178,0,76,637813700,0,0,649700416,0,0,0,13187,9999,0,0,186,11,0,1980-01-06T03:22:50,1633358412.2376928,2021-10-04T17:40:12,0.0,0.0,0.0
315966174,491000,1373348,139227000,0,2178,0,76,637813700,0,0,649702016,0,0,0,13206,9999,0,0,33,11,0,1980-01-06T03:22:54,1633358415.756917,2021-10-04T17:40:15,0.0,0.0,0.0
315966180,469000,1379320,139233000,0,2178,0,76,637813700,0,0,649704320,0,0,0,13234,9999,0,0,183,11,0,1980-01-06T03:23:00,1633358420.836081,2021-10-04T17:40:20,0.0,0.0,0.0
315966184,487000,1383334,139237000,0,2178,0,76,637813700,0,0,649705920,0,0,0,13253,9999,0,0,32,11,0,1980-01-06T03:23:04,1633358425.976404,2021-10-04T17:40:25,0.0,0.0,0.0
315966188,521000,1387364,139241000,0,2178,0,76,637813700,0,0,649707520,0,0,0,13272,9999,0,0,134,11,0,1980-01-06T03:23:08,1633358431.096597,2021-10-04T17:40:31,0.0,0.0,0.0
315966193,532000,1392370,139246000,0,2178,0,76,637813700,0,0,649709568,0,0,0,13295,9999,0,0,5,11,0,1980-01-06T03:23:13,1633358434.616353,2021-10-04T17:40:34,0.0,0.0,0.0
315966198,493000,1397326,139251000,0,2178,0,76,637813700,0,0,649711552,0,0,0,13319,9999,0,0,131,11,0,1980-01-06T03:23:18,1633358439.776113,2021-10-04T17:40:39,0.0,0.0,0.0
315966203,501000,1402329,139256000,0,2178,0,76,637813700,0,0,649713600,0,0,0,13342,9999,0,0,2,11,0,1980-01-06T03:23:23,1633358444.9358718,2021-10-04T17:40:44,0.0,0.0,0.0
315966208,511000,1407334,139261000,0,2178,0,76,637813700,0,0,649715584,0,0,0,13366,9999,0,0,129,11,0,1980-01-06T03:23:28,1633358450.0466769,2021-10-04T17:40:50,0.0,0.0,0.0
315966212,509000,1411328,139265000,0,2178,0,76,637813700,0,0,649717248,0,0,0,13384,9999,0,0,234,11,0,1980-01-06T03:23:32,1633358452.9966009,2021-10-04T17:40:52,0.0,0.0,0.0
315966217,519000,1416333,139270000,0,2178,0,76,637813700,0,0,649719296,0,0,0,13408,9999,0,0,105,11,0,1980-01-06T03:23:37,1633358458.686137,2021-10-04T17:40:58,0.0,0.0,0.0
315966222,527000,1421336,139275000,0,2178,0,76,637813700,0,0,649721408,0,0,0,13431,9999,0,0,233,11,0,1980-01-06T03:23:42,1633358464.416509,2021-10-04T17:41:04,0.0,0.0,0.0
315966227,537000,1426341,139280000,0,2178,0,76,637813700,0,0,649723456,0,0,0,13454,9999,0,0,105,11,0,1980-01-06T03:23:47,1633358469.536185,2021-10-04T17:41:09,0.0,0.0,0.0
315966232,545000,1431345,139285000,0,2178,0,76,637813700,0,0,649725568,0,0,0,13477,9999,0,0,232,11,0,1980-01-06T03:23:52,1633358472.485869,2021-10-04T17:41:12,0.0,0.0,0.0
315966236,543000,1435338,139289000,0,2178,0,76,637813700,0,0,649727232,0,0,0,13496,9999,0,0,81,11,0,1980-01-06T03:23:56,1633358477.625901,2021-10-04T17:41:17,0.0,0.0,0.0
315966241,560000,1440351,139294000,0,2178,0,76,637813700,0,0,649729280,0,0,0,13519,9999,0,0,208,11,0,1980-01-06T03:24:01,1633358482.7761328,2021-10-04T17:41:22,0.0,0.0,0.0
315966245,578000,1444365,139298000,0,2178,0,76,637813700,0,0,649731072,0,0,0,13538,9999,0,0,52,11,0,1980-01-06T03:24:05,1633358488.5259838,2021-10-04T17:41:28,0.0,0.0,0.0
315966250,564000,1449345,139303000,0,2178,0,76,637813700,0,0,649733120,0,0,0,13561,9999,0,0,178,11,0,1980-01-06T03:24:10,1633358491.4961078,2021-10-04T17:41:31,0.0,0.0,0.0
315966254,546000,1453323,139307000,0,2178,0,76,637813700,0,0,649734848,0,0,0,13579,9999,0,0,25,11,0,1980-01-06T03:24:14,1633358496.625876,2021-10-04T17:41:36,0.0,0.0,0.0
315966260,554000,1459325,139313000,0,2178,0,76,637813700,0,0,649737408,0,0,0,13607,9999,0,0,180,11,0,1980-01-06T03:24:20,1633358502.3357959,2021-10-04T17:41:42,0.0,0.0,0.0
315966264,559000,1463327,139317000,0,2178,0,76,637813700,0,0,649739136,0,0,0,13625,9999,0,0,27,11,0,1980-01-06T03:24:24,1633358506.876644,2021-10-04T17:41:46,0.0,0.0,0.0
315966269,587000,1468349,139322000,0,2178,0,76,637813700,0,0,649741312,0,0,0,13648,9999,0,0,154,11,0,1980-01-06T03:24:29,1633358509.8465009,2021-10-04T17:41:49,0.0,0.0,0.0
315966274,605000,1473362,139327000,0,2178,0,76,637813700,0,0,649743488,0,0,0,13671,9999,0,0,22,11,0,1980-01-06T03:24:34,1633358515.576129,2021-10-04T17:41:55,0.0,0.0,0.0
315966279,768000,1478519,139332000,0,2178,0,76,637813700,0,0,649745728,0,0,0,13694,9999,0,0,149,11,0,1980-01-06T03:24:39,1633358520.706353,2021-10-04T17:42:00,0.0,0.0,0.0
315966283,616000,1482365,139336000,0,2178,0,76,637813700,0,0,649747520,0,0,0,13712,9999,0,0,246,11,0,1980-01-06T03:24:43,1633358525.896517,2021-10-04T17:42:05,0.0,0.0,0.0
315966289,610000,1488352,139342000,0,2178,0,76,637813700,0,0,649750144,0,0,0,13739,9999,0,0,144,11,0,1980-01-06T03:24:49,1633358529.515864,2021-10-04T17:42:09,0.0,0.0,0.0
315966293,579000,1492318,139346000,0,2178,0,76,637813700,0,0,649751872,0,0,0,13757,9999,0,0,246,11,0,1980-01-06T03:24:53,1633358534.628288,2021-10-04T17:42:14,0.0,0.0,0.0
315966297,782000,1496516,139350000,0,2178,0,76,637813700,0,0,649753728,0,0,0,13775,9999,0,0,97,11,0,1980-01-06T03:24:57,1633358539.736445,2021-10-04T17:42:19,0.0,0.0,0.0
315966302,617000,1501347,139355000,0,2178,0,76,637813700,0,0,649755968,0,0,0,13798,9999,0,0,222,11,0,1980-01-06T03:25:02,1633358544.8761919,2021-10-04T17:42:24,0.0,0.0,0.0
315966306,635000,1505361,139359000,0,2178,0,76,637813700,0,0,649757760,0,0,0,13816,9999,0,0,69,11,0,1980-01-06T03:25:06,1633358547.895717,2021-10-04T17:42:27,0.0,0.0,0.0
315966311,623000,1510344,139364000,0,2178,0,76,637813700,0,0,649760128,0,0,0,13839,9999,0,0,197,11,0,1980-01-06T03:25:11,1633358553.086217,2021-10-04T17:42:33,0.0,0.0,0.0
315966316,639000,1515355,139369000,0,2178,0,76,637813700,0,0,649762624,0,0,0,13861,9999,0,0,65,11,0,1980-01-06T03:25:16,1633358558.7863078,2021-10-04T17:42:38,0.0,0.0,0.0
315966320,612000,1519324,139373000,0,2178,0,76,637813700,0,0,649764608,0,0,0,13879,9999,0,0,167,11,0,1980-01-06T03:25:20,1633358563.946612,2021-10-04T17:42:43,0.0,0.0,0.0
315966325,648000,1524354,139378000,0,2178,0,76,637813700,0,0,649766976,0,0,0,13902,9999,0,0,40,11,0,1980-01-06T03:25:25,1633358566.306316,2021-10-04T17:42:46,0.0,0.0,0.0
315966330,627000,1529328,139383000,0,2178,0,76,637813700,0,0,649769472,0,0,0,13924,9999,0,0,168,11,0,1980-01-06T03:25:30,1633358572.056344,2021-10-04T17:42:52,0.0,0.0,0.0
315966334,641000,1533339,139387000,0,2178,0,76,637813700,0,0,649771456,0,0,0,13942,9999,0,0,13,11,0,1980-01-06T03:25:34,1633358577.256217,2021-10-04T17:42:57,0.0,0.0,0.0
315966339,805000,1538498,139392000,0,2178,0,76,637813700,0,0,649774016,0,0,0,13965,9999,0,0,140,11,0,1980-01-06T03:25:39,1633358579.655669,2021-10-04T17:42:59,0.0,0.0,0.0
315966344,635000,1543323,139397000,0,2178,0,76,637813700,0,0,649776448,0,0,0,13987,9999,0,0,4,11,0,1980-01-06T03:25:44,1633358585.3963718,2021-10-04T17:43:05,0.0,0.0,0.0
315966348,673000,1547357,139401000,0,2178,0,76,637813700,0,0,649778432,0,0,0,14005,9999,0,0,106,11,0,1980-01-06T03:25:48,1633358589.9658089,2021-10-04T17:43:09,0.0,0.0,0.0
315966352,674000,1551353,139405000,0,2178,0,76,637813700,0,0,649780480,0,0,0,14023,9999,0,0,209,11,0,1980-01-06T03:25:52,1633358592.8759649,2021-10-04T17:43:12,0.0,0.0,0.0
315966357,812000,1556487,139410000,0,2178,0,76,637813700,0,0,649783040,0,0,0,14045,9999,0,0,82,11,0,1980-01-06T03:25:57,1633358597.976744,2021-10-04T17:43:17,0.0,0.0,0.0
315966361,676000,1560346,139414000,0,2178,0,76,637813700,0,0,649785088,0,0,0,14063,9999,0,0,183,11,0,1980-01-06T03:26:01,1633358603.0959558,2021-10-04T17:43:23,0.0,0.0,0.0
315966366,659000,1565325,139419000,0,2178,0,76,637813700,0,0,649787648,0,0,0,14085,9999,0,0,51,11,0,1980-01-06T03:26:06,1633358608.236665,2021-10-04T17:43:28,0.0,0.0,0.0
315966370,684000,1569345,139423000,0,2178,0,76,637813700,0,0,649789696,0,0,0,14103,9999,0,0,151,11,0,1980-01-06T03:26:10,1633358611.1757128,2021-10-04T17:43:31,0.0,0.0,0.0
315966375,835000,1574492,139428000,0,2178,0,76,637813700,0,0,649792320,0,0,0,14125,9999,0,0,22,11,0,1980-01-06T03:26:15,1633358616.306361,2021-10-04T17:43:36,0.0,0.0,0.0
315966379,678000,1578330,139432000,0,2178,0,76,637813700,0,0,649794304,0,0,0,14143,9999,0,0,118,11,0,1980-01-06T03:26:19,1633358621.456449,2021-10-04T17:43:41,0.0,0.0,0.0
315966384,721000,1583369,139437000,0,2178,0,76,637813700,0,0,649796928,0,0,0,14165,9999,0,0,247,11,0,1980-01-06T03:26:24,1633358627.1574528,2021-10-04T17:43:47,0.0,0.0,0.0
315966388,722000,1587366,139441000,0,2178,0,76,637813700,0,0,649798976,0,0,0,14182,9999,0,0,94,11,0,1980-01-06T03:26:28,1633358629.5459769,2021-10-04T17:43:49,0.0,0.0,0.0
315966392,689000,1591328,139445000,0,2178,0,76,637813700,0,0,649801152,0,0,0,14200,9999,0,0,196,11,0,1980-01-06T03:26:32,1633358634.6659598,2021-10-04T17:43:54,0.0,0.0,0.0
315966398,687000,1597320,139451000,0,2178,0,76,637813700,0,0,649804224,0,0,0,14226,9999,0,0,94,11,0,1980-01-06T03:26:38,1633358640.4067159,2021-10-04T17:44:00,0.0,0.0,0.0
315966402,707000,1601337,139455000,0,2178,0,76,637813700,0,0,649806400,0,0,0,14244,9999,0,0,197,11,0,1980-01-06T03:26:42,1633358643.345897,2021-10-04T17:44:03,0.0,0.0,0.0
315966406,727000,1605352,139459000,0,2178,0,76,637813700,0,0,649808512,0,0,0,14261,9999,0,0,44,11,0,1980-01-06T03:26:46,1633358647.9163759,2021-10-04T17:44:07,0.0,0.0,0.0
315966411,866000,1610487,139464000,0,2178,0,76,637813700,0,0,649811136,0,0,0,14283,9999,0,0,175,11,0,1980-01-06T03:26:51,1633358653.636276,2021-10-04T17:44:13,0.0,0.0,0.0
315966415,723000,1614340,139468000,0,2178,0,76,637813700,0,0,649813376,0,0,0,14301,9999,0,0,14,11,0,1980-01-06T03:26:55,1633358658.806736,2021-10-04T17:44:18,0.0,0.0,0.0
315966420,709000,1619321,139473000,0,2178,0,76,637813700,0,0,649815936,0,0,0,14323,9999,0,0,142,11,0,1980-01-06T03:27:00,1633358661.166781,2021-10-04T17:44:21,0.0,0.0,0.0
315966425,752000,1624358,139478000,0,2178,0,76,637813700,0,0,649818688,0,0,0,14344,9999,0,0,10,11,0,1980-01-06T03:27:05,1633358666.936112,2021-10-04T17:44:26,0.0,0.0,0.0
315966429,871000,1628474,139482000,0,2178,0,76,637813700,0,0,649820928,0,0,0,14362,9999,0,0,111,11,0,1980-01-06T03:27:09,1633358672.095861,2021-10-04T17:44:32,0.0,0.0,0.0
315966433,738000,1632337,139486000,0,2178,0,76,637813700,0,0,649822976,0,0,0,14379,9999,0,0,209,11,0,1980-01-06T03:27:13,1633358674.4765089,2021-10-04T17:44:34,0.0,0.0,0.0
315966439,746000,1638339,139492000,0,2178,0,76,637813700,0,0,649826304,0,0,0,14405,9999,0,0,107,11,0,1980-01-06T03:27:19,1633358680.2062519,2021-10-04T17:44:40,0.0,0.0,0.0
315966443,767000,1642355,139496000,0,2178,0,76,637813700,0,0,649828480,0,0,0,14423,9999,0,0,210,11,0,1980-01-06T03:27:23,1633358685.42586,2021-10-04T17:44:45,0.0,0.0,0.0
315966447,938000,1646521,139500000,0,2178,0,76,637813700,0,0,649830720,0,0,0,14440,9999,0,0,60,11,0,1980-01-06T03:27:27,1633358687.797917,2021-10-04T17:44:47,0.0,0.0,0.0
315966452,775000,1651355,139505000,0,2178,0,76,637813700,0,0,649833472,0,0,0,14462,9999,0,0,185,11,0,1980-01-06T03:27:32,1633358693.526357,2021-10-04T17:44:53,0.0,0.0,0.0
315966456,746000,1655321,139509000,0,2178,0,76,637813700,0,0,649835712,0,0,0,14479,9999,0,0,31,11,0,1980-01-06T03:27:36,1633358698.70644,2021-10-04T17:44:58,0.0,0.0,0.0
315966461,783000,1660353,139514000,0,2178,0,76,637813700,0,0,649838528,0,0,0,14500,9999,0,0,160,11,0,1980-01-06T03:27:41,1633358703.256837,2021-10-04T17:45:03,0.0,0.0,0.0
315966466,769000,1665335,139519000,0,2178,0,76,637813700,0,0,649841280,0,0,0,14522,9999,0,0,32,11,0,1980-01-06T03:27:46,1633358706.8261569,2021-10-04T17:45:06,0.0,0.0,0.0
315966470,779000,1669341,139523000,0,2178,0,76,637813700,0,0,649843520,0,0,0,14539,9999,0,0,130,11,0,1980-01-06T03:27:50,1633358711.957676,2021-10-04T17:45:11,0.0,0.0,0.0
315966474,800000,1673358,139527000,0,2178,0,76,637813700,0,0,649845824,0,0,0,14556,9999,0,0,233,11,0,1980-01-06T03:27:54,1633358716.546933,2021-10-04T17:45:16,0.0,0.0,0.0
315966480,808000,1679359,139533000,0,2178,0,76,637813700,0,0,649849216,0,0,0,14582,9999,0,0,128,11,0,1980-01-06T03:28:00,1633358722.3066769,2021-10-04T17:45:22,0.0,0.0,0.0
315966484,776000,1683323,139537000,0,2178,0,76,637813700,0,0,649851456,0,0,0,14599,9999,0,0,226,11,0,1980-01-06T03:28:04,1633358725.236253,2021-10-04T17:45:25,0.0,0.0,0.0
315966489,965000,1688508,139542000,0,2178,0,76,637813700,0,0,649854272,0,0,0,14621,9999,0,0,97,11,0,1980-01-06T03:28:09,1633358730.406165,2021-10-04T17:45:30,0.0,0.0,0.0
315966494,803000,1693341,139547000,0,2178,0,76,637813700,0,0,649857216,0,0,0,14642,9999,0,0,222,11,0,1980-01-06T03:28:14,1633358736.145941,2021-10-04T17:45:36,0.0,0.0,0.0
315966498,825000,1697359,139551000,0,2178,0,76,637813700,0,0,649859520,0,0,0,14659,9999,0,0,69,11,0,1980-01-06T03:28:18,1633358741.316841,2021-10-04T17:45:41,0.0,0.0,0.0
315966502,794000,1701324,139555000,0,2178,0,76,637813700,0,0,649861824,0,0,0,14676,9999,0,0,171,11,0,1980-01-06T03:28:22,1633358743.666844,2021-10-04T17:45:43,0.0,0.0,0.0
315966507,983000,1706508,139560000,0,2178,0,76,637813700,0,0,649864768,0,0,0,14697,9999,0,0,47,11,0,1980-01-06T03:28:27,1633358749.4059489,2021-10-04T17:45:49,0.0,0.0,0.0
315966512,821000,1711341,139565000,0,2178,0,76,637813700,0,0,649867648,0,0,0,14719,9999,0,0,172,11,0,1980-01-06T03:28:32,1633358753.9669409,2021-10-04T17:45:53,0.0,0.0,0.0
315966515,823000,1714340,139568000,0,2178,0,76,637813700,0,0,649869504,0,0,0,14731,9999,0,0,249,11,0,1980-01-06T03:28:35,1633358756.965977,2021-10-04T17:45:56,0.0,0.0,0.0
315966520,809000,1719321,139573000,0,2178,0,76,637813700,0,0,649872576,0,0,0,14753,9999,0,0,121,11,0,1980-01-06T03:28:40,1633358762.696208,2021-10-04T17:46:02,0.0,0.0,0.0
315966525,996000,1724503,139578000,0,2178,0,76,637813700,0,0,649875712,0,0,0,14774,9999,0,0,253,11,0,1980-01-06T03:28:45,1633358767.255909,2021-10-04T17:46:07,0.0,0.0,0.0
315966530,820000,1729322,139583000,0,2178,0,76,637813700,0,0,649878848,0,0,0,14795,9999,0,0,117,11,0,1980-01-06T03:28:50,1633358770.186573,2021-10-04T17:46:10,0.0,0.0,0.0
315966534,840000,1733338,139587000,0,2178,0,76,637813700,0,0,649881344,0,0,0,14812,9999,0,0,220,11,0,1980-01-06T03:28:54,1633358777.825485,2021-10-04T17:46:17,0.0,0.0,0.0
315966541,863000,1740354,139594000,0,2178,0,76,637813700,0,0,649885824,0,0,0,14841,9999,0,0,138,11,0,1980-01-06T03:29:01,1633358782.385169,2021-10-04T17:46:22,0.0,0.0,0.0
315966545,880000,1744366,139598000,0,2178,0,76,637813700,0,0,649888320,0,0,0,14858,9999,0,0,237,11,0,1980-01-06T03:29:05,1633358787.5955598,2021-10-04T17:46:27,0.0,0.0,0.0
315966550,867000,1749349,139603000,0,2178,0,76,637813700,0,0,649891520,0,0,0,14879,9999,0,0,107,11,0,1980-01-06T03:29:10,1633358791.1264448,2021-10-04T17:46:31,0.0,0.0,0.0
315966554,889000,1753366,139607000,0,2178,0,76,637813700,0,0,649894080,0,0,0,14896,9999,0,0,210,11,0,1980-01-06T03:29:14,1633358795.7044199,2021-10-04T17:46:35,0.0,0.0,0.0
315966559,874000,1758346,139612000,0,2178,0,76,637813700,0,0,649897280,0,0,0,14917,9999,0,0,82,11,0,1980-01-06T03:29:19,1633358800.885761,2021-10-04T17:46:40,0.0,0.0,0.0
315966564,860000,1763327,139617000,0,2178,0,76,637813700,0,0,649900480,0,0,0,14938,9999,0,0,210,11,0,1980-01-06T03:29:24,1633358806.614784,2021-10-04T17:46:46,0.0,0.0,0.0
315966568,878000,1767342,139621000,0,2178,0,76,637813700,0,0,649903040,0,0,0,14955,9999,0,0,57,11,0,1980-01-06T03:29:28,1633358809.5835729,2021-10-04T17:46:49,0.0,0.0,0.0
315966572,899000,1771359,139625000,0,2178,0,76,637813700,0,0,649905600,0,0,0,14971,9999,0,0,160,11,0,1980-01-06T03:29:32,1633358814.154124,2021-10-04T17:46:54,0.0,0.0,0.0
315966578,901000,1777355,139631000,0,2178,0,76,637813700,0,0,649909568,0,0,0,14996,9999,0,0,58,11,0,1980-01-06T03:29:38,1633358819.902984,2021-10-04T17:46:59,0.0,0.0,0.0
315966582,870000,1781320,139635000,0,2178,0,76,637813700,0,0,649912128,0,0,0,15013,9999,0,0,160,11,0,1980-01-06T03:29:42,1633358822.8525798,2021-10-04T17:47:02,0.0,0.0,0.0
315966587,908000,1786353,139640000,0,2178,0,76,637813700,0,0,649915456,0,0,0,15034,9999,0,0,33,11,0,1980-01-06T03:29:47,1633358827.99238,2021-10-04T17:47:07,0.0,0.0,0.0
315966592,79000,1790519,139644000,0,2178,0,76,637813700,0,0,649918080,0,0,0,15050,9999,0,0,139,11,0,1980-01-06T03:29:52,1633358833.203001,2021-10-04T17:47:13,0.0,0.0,0.0
315966595,887000,1794324,139648000,0,2178,0,76,637813700,0,0,649920704,0,0,0,15067,9999,0,0,231,11,0,1980-01-06T03:29:55,1633358838.342521,2021-10-04T17:47:18,0.0,0.0,0.0
315966599,906000,1798339,139652000,0,2178,0,76,637813700,0,0,649923328,0,0,0,15084,9999,0,0,74,11,0,1980-01-06T03:29:59,1633358841.341876,2021-10-04T17:47:21,0.0,0.0,0.0
315966605,912000,1804339,139658000,0,2178,0,76,637813700,0,0,649927360,0,0,0,15108,9999,0,0,222,11,0,1980-01-06T03:30:05,1633358846.471585,2021-10-04T17:47:26,0.0,0.0,0.0
315966610,82000,1808505,139662000,0,2178,0,76,637813700,0,0,649929984,0,0,0,15125,9999,0,0,72,11,0,1980-01-06T03:30:10,1633358851.6410449,2021-10-04T17:47:31,0.0,0.0,0.0
315966613,903000,1812322,139666000,0,2178,0,76,637813700,0,0,649932672,0,0,0,15141,9999,0,0,171,11,0,1980-01-06T03:30:13,1633358854.5614128,2021-10-04T17:47:34,0.0,0.0,0.0
315966619,906000,1818319,139672000,0,2178,0,76,637813700,0,0,649936768,0,0,0,15166,9999,0,0,69,11,0,1980-01-06T03:30:19,1633358859.7110078,2021-10-04T17:47:39,0.0,0.0,0.0
315966622,959000,1821369,139675000,0,2178,0,76,637813700,0,0,649938752,0,0,0,15179,9999,0,0,147,11,0,1980-01-06T03:30:22,1633358864.9104118,2021-10-04T17:47:44,0.0,0.0,0.0
315966626,927000,1825333,139679000,0,2178,0,76,637813700,0,0,649941440,0,0,0,15195,9999,0,0,249,11,0,1980-01-06T03:30:26,1633358870.131084,2021-10-04T17:47:50,0.0,0.0,0.0
315966632,932000,1831332,139685000,0,2178,0,76,637813700,0,0,649945536,0,0,0,15220,9999,0,0,147,11,0,1980-01-06T03:30:32,1633358873.099869,2021-10-04T17:47:53,0.0,0.0,0.0
315966636,953000,1835349,139689000,0,2178,0,76,637813700,0,0,649948288,0,0,0,15236,9999,0,0,250,11,0,1980-01-06T03:30:36,1633358878.280529,2021-10-04T17:47:58,0.0,0.0,0.0
315966640,972000,1839365,139693000,0,2178,0,76,637813700,0,0,649950976,0,0,0,15253,9999,0,0,97,11,0,1980-01-06T03:30:40,1633358882.8518639,2021-10-04T17:48:02,0.0,0.0,0.0
315966646,109000,1844496,139698000,0,2178,0,76,637813700,0,0,649954496,0,0,0,15273,9999,0,0,228,11,0,1980-01-06T03:30:46,1633358886.4324489,2021-10-04T17:48:06,0.0,0.0,0.0
315966649,979000,1848362,139702000,0,2178,0,76,637813700,0,0,649957184,0,0,0,15289,9999,0,0,72,11,0,1980-01-06T03:30:49,1633358890.98946,2021-10-04T17:48:10,0.0,0.0,0.0
315966654,955000,1853333,139707000,0,2178,0,76,637813700,0,0,649960640,0,0,0,15310,9999,0,0,192,11,0,1980-01-06T03:30:54,1633358896.1885839,2021-10-04T17:48:16,0.0,0.0,0.0
315966658,973000,1857347,139711000,0,2178,0,76,637813700,0,0,649963456,0,0,0,15326,9999,0,0,35,11,0,1980-01-06T03:30:58,1633358901.949585,2021-10-04T17:48:21,0.0,0.0,0.0
315966664,166000,1862534,139716000,0,2178,0,76,637813700,0,0,649966976,0,0,0,15346,9999,0,0,167,11,0,1980-01-06T03:31:04,1633358904.928156,2021-10-04T17:48:24,0.0,0.0,0.0
315966668,990000,1867355,139721000,0,2178,0,76,637813700,0,0,649970432,0,0,0,15367,9999,0,0,31,11,0,1980-01-06T03:31:08,1633358910.089944,2021-10-04T17:48:30,0.0,0.0,0.0
315966673,976000,1872336,139726000,0,2178,0,76,637813700,0,0,649973952,0,0,0,15387,9999,0,0,159,11,0,1980-01-06T03:31:13,1633358915.8776119,2021-10-04T17:48:35,0.0,0.0,0.0
315966679,14000,1877368,139731000,0,2178,0,76,637813700,0,0,649977472,0,0,0,15407,9999,0,0,32,11,0,1980-01-06T03:31:19,1633358918.217908,2021-10-04T17:48:38,0.0,0.0,0.0
315966682,983000,1881333,139735000,0,2178,0,76,637813700,0,0,649980288,0,0,0,15424,9999,0,0,134,11,0,1980-01-06T03:31:22,1633358923.407573,2021-10-04T17:48:43,0.0,0.0,0.0
315966688,169000,1886515,139740000,0,2178,0,76,637813700,0,0,649983872,0,0,0,15444,9999,0,0,10,11,0,1980-01-06T03:31:28,1633358929.2070248,2021-10-04T17:48:49,0.0,0.0,0.0
