time_s,time_us,time_steady,iTOW,fTOW,week,gpsFix,flags,ecefX,ecefY,ecefZ,pAcc,ecefVX,ecefVY,ecefVZ,sAcc,pDOP,reserved1,numSV,seq,srcSystem,srcComponent,time_gregorian,lat,lon,h
1633357043,106000,5107,5000,0,0,0,64,637813700,0,0,649519040,0,0,0,2000,9999,0,0,67,11,0,1980-01-06T03:00:05,0,0,0
1633357044,142000,6143,6000,0,0,0,64,637813700,0,0,649519040,0,0,0,2000,9999,0,0,89,11,0,1980-01-06T03:00:06,0,0,0
1633357045,123000,7124,7000,0,0,0,64,637813700,0,0,649519040,0,0,0,2031,9999,0,0,114,11,0,1980-01-06T03:00:07,0,0,0
1633357046,97000,8098,8000,0,0,0,64,637813700,0,0,649519040,0,0,0,2062,9999,0,0,140,11,0,1980-01-06T03:00:08,0,0,0
1633357047,119000,9120,9000,0,0,0,64,637813700,0,0,649519040,0,0,0,2092,9999,0,0,167,11,0,1980-01-06T03:00:09,0,0,0
1633357048,93000,10094,10000,0,0,0,64,637813700,0,0,649519040,0,0,0,2121,9999,0,0,193,11,0,1980-01-06T03:00:10,0,0,0
1633357049,103000,11104,11000,0,0,0,64,637813700,0,0,649519040,0,0,0,2151,9999,0,0,215,11,0,1980-01-06T03:00:11,0,0,0
1633357050,125000,12126,12000,0,0,0,64,637813700,0,0,649519040,0,0,0,2179,9999,0,0,242,11,0,1980-01-06T03:00:12,0,0,0
1633357051,99000,13100,13000,0,0,0,64,637813700,0,0,649519040,0,0,0,2208,9999,0,0,12,11,0,1980-01-06T03:00:13,0,0,0
1633357052,122000,14122,14000,0,0,0,64,637813700,0,0,649519040,0,0,0,2236,9999,0,0,39,11,0,1980-01-06T03:00:14,0,0,0
1633357053,97000,15096,15000,0,0,0,64,637813700,0,0,649519040,0,0,0,2264,9999,0,0,65,11,0,1980-01-06T03:00:15,0,0,0
1633357054,120000,16118,16000,0,0,0,64,637813700,0,0,649519040,0,0,0,2291,9999,0,0,91,11,0,1980-01-06T03:00:16,0,0,0
1633357055,83000,17080,17000,0,0,0,64,637813700,0,0,649519040,0,0,0,2318,9999,0,0,112,11,0,1980-01-06T03:00:17,0,0,0
1633357056,106000,18102,18000,0,0,0,64,637813700,0,0,649519040,0,0,0,2345,9999,0,0,139,11,0,1980-01-06T03:00:18,0,0,0
1633357057,129000,19124,19000,0,0,0,64,637813700,0,0,649519040,0,0,0,2372,9999,0,0,166,11,0,1980-01-06T03:00:19,0,0,0
1633357058,104000,20098,20000,0,0,0,64,637813700,0,0,649519040,0,0,0,2398,9999,0,0,192,11,0,1980-01-06T03:00:20,0,0,0
1633357059,127000,21120,21000,0,0,0,64,637813700,0,0,649519040,0,0,0,2424,9999,0,0,219,11,0,1980-01-06T03:00:21,0,0,0
1633357060,102000,22094,22000,0,0,0,64,637813700,0,0,649519040,0,0,0,2449,9999,0,0,244,11,0,1980-01-06T03:00:22,0,0,0
1633357061,113000,23104,23000,0,0,0,64,637813700,0,0,649519040,0,0,0,2475,9999,0,0,10,11,0,1980-01-06T03:00:23,0,0,0
1633357062,88000,24078,24000,0,0,0,64,637813700,0,0,649519040,0,0,0,2500,9999,0,0,36,11,0,1980-01-06T03:00:24,0,0,0
1633357063,111000,25101,25000,0,0,0,64,637813700,0,0,649519040,0,0,0,2525,9999,0,0,63,11,0,1980-01-06T03:00:25,0,0,0
1633357064,134000,26122,26000,0,0,0,64,637813700,0,0,649519040,0,0,0,2550,9999,0,0,90,11,0,1980-01-06T03:00:26,0,0,0
1633357065,108000,27096,27000,0,0,0,64,637813700,0,0,649519040,0,0,0,2574,9999,0,0,115,11,0,1980-01-06T03:00:27,0,0,0
1633357066,118000,28104,28000,0,0,0,64,637813700,0,0,649519040,0,0,0,2598,9999,0,0,137,11,0,1980-01-06T03:00:28,0,0,0
1633357067,91000,29078,29000,0,0,0,64,637813700,0,0,649519040,0,0,0,2622,9999,0,0,163,11,0,1980-01-06T03:00:29,0,0,0
1633357068,112000,30099,30000,0,0,0,64,637813700,0,0,649519040,0,0,0,2646,9999,0,0,190,11,0,1980-01-06T03:00:30,0,0,0
1633357069,135000,31121,31000,0,0,0,64,637813700,0,0,649519040,0,0,0,2669,9999,0,0,217,11,0,1980-01-06T03:00:31,0,0,0
1633357070,109000,32095,32000,0,0,0,64,637813700,0,0,649519040,0,0,0,2693,9999,0,0,243,11,0,1980-01-06T03:00:32,0,0,0
1633357071,132000,33118,33000,0,0,0,64,637813700,0,0,649519040,0,0,0,2716,9999,0,0,13,11,0,1980-01-06T03:00:33,0,0,0
1633357072,94000,34080,34000,0,0,0,64,637813700,0,0,649519040,0,0,0,2739,9999,0,0,34,11,0,1980-01-06T03:00:34,0,0,0
1633357073,116000,35102,35000,0,0,0,64,637813700,0,0,649519040,0,0,0,2761,9999,0,0,61,11,0,1980-01-06T03:00:35,0,0,0
1633357074,138000,36125,36000,0,0,0,64,637813700,0,0,649519040,0,0,0,2784,9999,0,0,88,11,0,1980-01-06T03:00:36,0,0,0
1633357075,113000,37099,37000,0,0,0,64,637813700,0,0,649519040,0,0,0,2806,9999,0,0,114,11,0,1980-01-06T03:00:37,0,0,0
1633357076,135000,38122,38000,0,0,0,64,637813700,0,0,649519040,0,0,0,2828,9999,0,0,141,11,0,1980-01-06T03:00:38,0,0,0
1633357077,110000,39096,39000,0,0,0,64,637813700,0,0,649519040,0,0,0,2850,9999,0,0,166,11,0,1980-01-06T03:00:39,0,0,0
1633357078,120000,40106,40000,0,0,0,64,637813700,0,0,649519040,0,0,0,2872,9999,0,0,188,11,0,1980-01-06T03:00:40,0,0,0
1633357079,94000,41080,41000,0,0,0,64,637813700,0,0,649519040,0,0,0,2894,9999,0,0,214,11,0,1980-01-06T03:00:41,0,0,0
1633357080,116000,42102,42000,0,0,0,64,637813700,0,0,649519040,0,0,0,2915,9999,0,0,241,11,0,1980-01-06T03:00:42,0,0,0
1633357081,139000,43125,43000,0,0,0,64,637813700,0,0,649519040,0,0,0,2937,9999,0,0,12,11,0,1980-01-06T03:00:43,0,0,0
1633357082,113000,44099,44000,0,0,0,64,637813700,0,0,649519040,0,0,0,2958,9999,0,0,37,11,0,1980-01-06T03:00:44,0,0,0
1633357083,123000,45109,45000,0,0,0,64,637813700,0,0,649519040,0,0,0,2979,9999,0,0,59,11,0,1980-01-06T03:00:45,0,0,0
1633357084,95000,46082,46000,0,0,0,64,637813700,0,0,649519040,0,0,0,3000,9999,0,0,85,11,0,1980-01-06T03:00:46,0,0,0
1633357085,116000,47102,47000,0,0,0,64,637813700,0,0,649519040,0,0,0,3021,9999,0,0,112,11,0,1980-01-06T03:00:47,0,0,0
1633357086,137000,48123,48000,0,0,0,64,637813700,0,0,649519040,0,0,0,3041,9999,0,0,139,11,0,1980-01-06T03:00:48,0,0,0
1633357087,110000,49097,49000,0,0,0,64,637813700,0,0,649519040,0,0,0,3062,9999,0,0,165,11,0,1980-01-06T03:00:49,0,0,0
1633357088,132000,50118,50000,0,0,0,64,637813700,0,0,649519040,0,0,0,3082,9999,0,0,191,11,0,1980-01-06T03:00:50,0,0,0
1633357089,140000,51126,51000,0,0,0,64,637813700,0,0,649519040,0,0,0,3102,9999,0,0,213,11,0,1980-01-06T03:00:51,0,0,0
1633357090,114000,52100,52000,0,0,0,64,637813700,0,0,649519040,0,0,0,3122,9999,0,0,239,11,0,1980-01-06T03:00:52,0,0,0
1633357091,135000,53121,53000,0,0,0,64,637813700,0,0,649519040,0,0,0,3142,9999,0,0,10,11,0,1980-01-06T03:00:53,0,0,0
1633357092,108000,54095,54000,0,0,0,64,637813700,0,0,649519040,0,0,0,3162,9999,0,0,36,11,0,1980-01-06T03:00:54,0,0,0
1633357093,130000,55116,55000,0,0,0,64,637813700,0,0,649519040,0,0,0,3182,9999,0,0,63,11,0,1980-01-06T03:00:55,0,0,0
1633357094,105000,56091,56000,0,0,0,64,637813700,0,0,649519040,0,0,0,3202,9999,0,0,88,11,0,1980-01-06T03:00:56,0,0,0
1633357095,115000,57101,57000,0,0,0,64,637813700,0,0,649519040,0,0,0,3221,9999,0,0,110,11,0,1980-01-06T03:00:57,0,0,0
1633357096,137000,58123,58000,0,0,0,64,637813700,0,0,649519040,0,0,0,3240,9999,0,0,137,11,0,1980-01-06T03:00:58,0,0,0
1633357097,111000,59097,59000,0,0,0,64,637813700,0,0,649519104,0,0,0,3260,9999,0,0,163,11,0,1980-01-06T03:00:59,0,0,0
1633357098,133000,60119,60000,0,0,0,64,637813700,0,0,649519104,0,0,0,3279,9999,0,0,190,11,0,1980-01-06T03:01:00,0,0,0
1633357099,107000,61093,61000,0,0,0,64,637813700,0,0,649519104,0,0,0,3298,9999,0,0,216,11,0,1980-01-06T03:01:01,0,0,0
1633357100,117000,62103,62000,0,0,0,64,637813700,0,0,649519104,0,0,0,3317,9999,0,0,238,11,0,1980-01-06T03:01:02,0,0,0
1633357101,91000,63077,63000,0,0,0,64,637813700,0,0,649519104,0,0,0,3335,9999,0,0,8,11,0,1980-01-06T03:01:03,0,0,0
1633357102,113000,64099,64000,0,0,0,64,637813700,0,0,649519104,0,0,0,3354,9999,0,0,35,11,0,1980-01-06T03:01:04,0,0,0
1633357103,135000,65121,65000,0,0,0,64,637813700,0,0,649519104,0,0,0,3373,9999,0,0,62,11,0,1980-01-06T03:01:05,0,0,0
1633357104,109000,66095,66000,0,0,0,64,637813700,0,0,649519104,0,0,0,3391,9999,0,0,88,11,0,1980-01-06T03:01:06,0,0,0
1633357105,131000,67117,67000,0,0,0,64,637813700,0,0,649519104,0,0,0,3410,9999,0,0,114,11,0,1980-01-06T03:01:07,0,0,0
1633357106,141000,68127,68000,0,0,0,64,637813700,0,0,649519104,0,0,0,3428,9999,0,0,136,11,0,1980-01-06T03:01:08,0,0,0
1633357107,116000,69102,69000,0,0,0,64,637813700,0,0,649519104,0,0,0,3446,9999,0,0,162,11,0,1980-01-06T03:01:09,0,0,0
1633357108,138000,70124,70000,0,0,0,64,637813700,0,0,649519104,0,0,0,3464,9999,0,0,189,11,0,1980-01-06T03:01:10,0,0,0
1633357110,134000,72120,72000,0,0,0,64,637813700,0,0,649519104,0,0,0,3500,9999,0,0,242,11,0,1980-01-06T03:01:12,0,0,0
1633357111,108000,73094,73000,0,0,0,64,637813700,0,0,649519104,0,0,0,3518,9999,0,0,11,11,0,1980-01-06T03:01:13,0,0,0
1633357112,118000,74104,74000,0,0,0,64,637813700,0,0,649519104,0,0,0,3536,9999,0,0,33,11,0,1980-01-06T03:01:14,0,0,0
1633357113,93000,75079,75000,0,0,0,64,637813700,0,0,649519104,0,0,0,3553,9999,0,0,59,11,0,1980-01-06T03:01:15,0,0,0
1633357114,115000,76101,76000,0,0,0,64,637813700,0,0,649519104,0,0,0,3571,9999,0,0,86,11,0,1980-01-06T03:01:16,0,0,0
1633357115,137000,77123,77000,0,0,0,64,637813700,0,0,649519104,0,0,0,3588,9999,0,0,113,11,0,1980-01-06T03:01:17,0,0,0
1633357116,111000,78097,78000,0,0,0,64,637813700,0,0,649519104,0,0,0,3606,9999,0,0,138,11,0,1980-01-06T03:01:18,0,0,0
1633357117,121000,79107,79000,0,0,0,64,637813700,0,0,649519104,0,0,0,3623,9999,0,0,160,11,0,1980-01-06T03:01:19,0,0,0
1633357118,96000,80082,80000,0,0,0,64,637813700,0,0,649519104,0,0,0,3640,9999,0,0,186,11,0,1980-01-06T03:01:20,0,0,0
1633357119,118000,81104,81000,0,0,0,64,637813700,0,0,649519104,0,0,0,3657,9999,0,0,213,11,0,1980-01-06T03:01:21,0,0,0
1633357120,140000,82126,82000,0,0,0,64,637813700,0,0,649519104,0,0,0,3674,9999,0,0,240,11,0,1980-01-06T03:01:22,0,0,0
1633357121,113000,83099,83000,0,0,0,64,637813700,0,0,649519104,0,0,0,3691,9999,0,0,10,11,0,1980-01-06T03:01:23,0,0,0
1633357122,135000,84121,84000,0,0,0,64,637813700,0,0,649519104,0,0,0,3708,9999,0,0,36,11,0,1980-01-06T03:01:24,0,0,0
1633357123,96000,85082,85000,0,0,0,64,637813700,0,0,649519104,0,0,0,3725,9999,0,0,57,11,0,1980-01-06T03:01:25,0,0,0
1633357124,117000,86103,86000,0,0,0,64,637813700,0,0,649519104,0,0,0,3742,9999,0,0,84,11,0,1980-01-06T03:01:26,0,0,0
1633357125,139000,87125,87000,0,0,0,64,637813700,0,0,649519104,0,0,0,3758,9999,0,0,111,11,0,1980-01-06T03:01:27,0,0,0
1633357126,112000,88098,88000,0,0,0,64,637813700,0,0,649519104,0,0,0,3775,9999,0,0,137,11,0,1980-01-06T03:01:28,0,0,0
1633357127,132000,89118,89000,0,0,0,64,637813700,0,0,649519104,0,0,0,3791,9999,0,0,164,11,0,1980-01-06T03:01:29,0,0,0
1633357128,105000,90091,90000,0,0,0,64,637813700,0,0,649519104,0,0,0,3808,9999,0,0,189,11,0,1980-01-06T03:01:30,0,0,0
1633357129,113000,91099,91000,0,0,0,64,637813700,0,0,649519104,0,0,0,3824,9999,0,0,211,11,0,1980-01-06T03:01:31,0,0,0
1633357130,134000,92120,92000,0,0,0,64,637813700,0,0,649519104,0,0,0,3841,9999,0,0,238,11,0,1980-01-06T03:01:32,0,0,0
1633357131,106000,93092,93000,0,0,0,64,637813700,0,0,649519168,0,0,0,3857,9999,0,0,8,11,0,1980-01-06T03:01:33,0,0,0
1633357132,127000,94113,94000,0,0,0,64,637813700,0,0,649519168,0,0,0,3873,9999,0,0,35,11,0,1980-01-06T03:01:34,0,0,0
1633357133,100000,95086,95000,0,0,0,64,637813700,0,0,649519168,0,0,0,3889,9999,0,0,61,11,0,1980-01-06T03:01:35,0,0,0
1633357134,108000,96094,96000,0,0,0,64,637813700,0,0,649519168,0,0,0,3905,9999,0,0,83,11,0,1980-01-06T03:01:36,0,0,0
1633357135,129000,97115,97000,0,0,0,64,637813700,0,0,649519168,0,0,0,3921,9999,0,0,110,11,0,1980-01-06T03:01:37,0,0,0
1633357136,102000,98088,98000,0,0,0,64,637813700,0,0,649519168,0,0,0,3937,9999,0,0,136,11,0,1980-01-06T03:01:38,0,0,0
1633357137,122000,99108,99000,0,0,0,64,637813700,0,0,649519168,0,0,0,3953,9999,0,0,163,11,0,1980-01-06T03:01:39,0,0,0
1633357138,96000,100082,100000,0,0,0,64,637813700,0,0,649519168,0,0,0,3969,9999,0,0,189,11,0,1980-01-06T03:01:40,0,0,0
1633357139,118000,101104,101000,0,0,0,64,637813700,0,0,649519232,0,0,0,3984,9999,0,0,215,11,0,1980-01-06T03:01:41,0,0,0
1633357140,126000,102112,102000,0,0,0,64,637813700,0,0,649519232,0,0,0,4000,9999,0,0,237,11,0,1980-01-06T03:01:42,0,0,0
1633357141,99000,103085,103000,0,0,0,64,637813700,0,0,649519232,0,0,0,4016,9999,0,0,7,11,0,1980-01-06T03:01:43,0,0,0
1633357142,119000,104105,104000,0,0,0,64,637813700,0,0,649519232,0,0,0,4031,9999,0,0,34,11,0,1980-01-06T03:01:44,0,0,0
1633357143,92000,105078,105000,0,0,0,64,637813700,0,0,649519232,0,0,0,4047,9999,0,0,60,11,0,1980-01-06T03:01:45,0,0,0
1633357144,113000,106100,106000,0,0,0,64,637813700,0,0,649519232,0,0,0,4062,9999,0,0,87,11,0,1980-01-06T03:01:46,0,0,0
1633357145,136000,107122,107000,0,0,0,64,637813700,0,0,649519232,0,0,0,4077,9999,0,0,113,11,0,1980-01-06T03:01:47,0,0,0
1633357146,97000,108083,108000,0,0,0,64,637813700,0,0,649519232,0,0,0,4093,9999,0,0,134,11,0,1980-01-06T03:01:48,0,0,0
1633357147,119000,109105,109000,0,0,0,64,637813700,0,0,649519232,0,0,0,4108,9999,0,0,161,11,0,1980-01-06T03:01:49,0,0,0
1633357148,93000,110079,110000,0,0,0,64,637813700,0,0,649519232,0,0,0,4123,9999,0,0,187,11,0,1980-01-06T03:01:50,0,0,0
1633357149,115000,111101,111000,0,0,0,64,637813700,0,0,649519232,0,0,0,4138,9999,0,0,214,11,0,1980-01-06T03:01:51,0,0,0
1633357150,377000,112363,137966000,0,0,0,72,637813700,0,0,649519232,0,0,0,4155,9999,0,0,246,11,0,1980-01-06T03:01:52,0,0,0
1633357151,350000,113336,137967000,0,0,0,72,637813700,0,0,649519232,0,0,0,4170,9999,0,0,15,11,0,1980-01-06T03:01:53,0,0,0
1633357152,372000,114358,137968000,0,0,0,72,637813700,0,0,649519232,0,0,0,4185,9999,0,0,42,11,0,1980-01-06T03:01:54,0,0,0
1633357153,333000,115319,137969000,0,0,0,72,637813700,0,0,649519232,0,0,0,4200,9999,0,0,63,11,0,1980-01-06T03:01:55,0,0,0
1633357154,546000,116532,137970000,0,0,0,72,637813700,0,0,649519232,0,0,0,4215,9999,0,0,94,11,0,1980-01-06T03:01:56,0,0,0
1633357155,375000,117361,137971000,0,0,0,72,637813700,0,0,649519232,0,0,0,4230,9999,0,0,117,11,0,1980-01-06T03:01:57,0,0,0
1633357156,349000,118335,137972000,0,2178,0,76,637813700,0,0,649519232,0,0,0,4244,9999,0,0,142,11,0,1980-01-06T03:01:58,0,0,0
1633357157,370000,119356,137973000,0,2178,0,76,637813700,0,0,649519232,0,0,0,4259,9999,0,0,169,11,0,1980-01-06T03:01:59,0,0,0
1633357158,379000,120365,137974000,0,2178,0,76,637813700,0,0,649519232,0,0,0,4274,9999,0,0,191,11,0,1980-01-06T03:02:00,0,0,0
1633357159,352000,121338,137975000,0,2178,0,76,637813700,0,0,649519232,0,0,0,4288,9999,0,0,217,11,0,1980-01-06T03:02:01,0,0,0
1633357160,516000,122502,137976000,0,2178,0,76,637813700,0,0,649519232,0,0,0,4303,9999,0,0,247,11,0,1980-01-06T03:02:02,0,0,0
1633357161,346000,123332,137977000,0,2178,0,76,637813700,0,0,649519232,0,0,0,4317,9999,0,0,14,11,0,1980-01-06T03:02:03,0,0,0
1633357162,367000,124353,137978000,0,2178,0,76,637813700,0,0,649519232,0,0,0,4332,9999,0,0,40,11,0,1980-01-06T03:02:04,0,0,0
1633357163,340000,125326,137979000,0,2178,0,76,637813700,0,0,649519232,0,0,0,4346,9999,0,0,66,11,0,1980-01-06T03:02:05,0,0,0
1633357164,348000,126334,137980000,0,2178,0,76,637813700,0,0,649519232,0,0,0,4361,9999,0,0,88,11,0,1980-01-06T03:02:06,0,0,0
1633357165,370000,127356,137981000,0,2178,0,76,637813700,0,0,649519232,0,0,0,4375,9999,0,0,115,11,0,1980-01-06T03:02:07,0,0,0
1633357166,487000,128473,137982000,0,2178,0,76,637813700,0,0,649519232,0,0,0,4389,9999,0,0,144,11,0,1980-01-06T03:02:08,0,0,0
1633357167,366000,129352,137983000,0,2178,0,76,637813700,0,0,649519296,0,0,0,4403,9999,0,0,168,11,0,1980-01-06T03:02:09,0,0,0
1633357168,340000,130326,137984000,0,2178,0,76,637813700,0,0,649519296,0,0,0,4417,9999,0,0,193,11,0,1980-01-06T03:02:10,0,0,0
1633357169,363000,131349,137985000,0,2178,0,76,637813700,0,0,649519296,0,0,0,4432,9999,0,0,220,11,0,1980-01-06T03:02:11,0,0,0
1633357170,372000,132358,137986000,0,2178,0,76,637813700,0,0,649519296,0,0,0,4446,9999,0,0,242,11,0,1980-01-06T03:02:12,0,0,0
1633357171,347000,133333,137987000,0,2178,0,76,637813700,0,0,649519296,0,0,0,4460,9999,0,0,12,11,0,1980-01-06T03:02:13,0,0,0
1633357172,513000,134499,137988000,0,2178,0,76,637813700,0,0,649519296,0,0,0,4474,9999,0,0,42,11,0,1980-01-06T03:02:14,0,0,0
1633357173,343000,135329,137989000,0,2178,0,76,637813700,0,0,649519296,0,0,0,4488,9999,0,0,64,11,0,1980-01-06T03:02:15,0,0,0
1633357174,366000,136351,137990000,0,2178,0,76,637813700,0,0,649519296,0,0,0,4502,9999,0,0,91,11,0,1980-01-06T03:02:16,0,0,0
1633357175,376000,137362,137991000,0,2178,0,76,637813700,0,0,649519296,0,0,0,4515,9999,0,0,113,11,0,1980-01-06T03:02:17,0,0,0
1633357176,350000,138336,137992000,0,2178,0,76,637813700,0,0,649519296,0,0,0,4529,9999,0,0,139,11,0,1980-01-06T03:02:18,0,0,0
1633357177,371000,139357,137993000,0,2178,0,76,637813700,0,0,649519296,0,0,0,4543,9999,0,0,166,11,0,1980-01-06T03:02:19,0,0,0
1633357178,537000,140523,137994000,0,2178,0,76,637813700,0,0,649519296,0,0,0,4557,9999,0,0,196,11,0,1980-01-06T03:02:20,0,0,0
1633357179,368000,141354,137995000,0,2178,0,76,637813700,0,0,649519296,0,0,0,4570,9999,0,0,218,11,0,1980-01-06T03:02:21,0,0,0
1633357180,342000,142328,137996000,0,2178,0,76,637813700,0,0,649519360,0,0,0,4584,9999,0,0,244,11,0,1980-01-06T03:02:22,0,0,0
1633357181,353000,143339,137997000,0,2178,0,76,637813700,0,0,649519360,0,0,0,4598,9999,0,0,10,11,0,1980-01-06T03:02:23,0,0,0
1633357182,375000,144361,137998000,0,2178,0,76,637813700,0,0,649519360,0,0,0,4611,9999,0,0,37,11,0,1980-01-06T03:02:24,0,0,0
1633357183,350000,145336,137999000,0,2178,0,76,637813700,0,0,649519360,0,0,0,4625,9999,0,0,63,11,0,1980-01-06T03:02:25,0,0,0
1633357184,515000,146501,138000000,0,2178,0,76,637813700,0,0,649519360,0,0,0,4638,9999,0,0,93,11,0,1980-01-06T03:02:26,0,0,0
1633357185,348000,147334,138001000,0,2178,0,76,637813700,0,0,649519360,0,0,0,4652,9999,0,0,115,11,0,1980-01-06T03:02:27,0,0,0
1633357186,374000,148360,138002000,0,2178,0,76,637813700,0,0,649519360,0,0,0,4665,9999,0,0,142,11,0,1980-01-06T03:02:28,0,0,0
1633357187,339000,149325,138003000,0,2178,0,76,637813700,0,0,649519360,0,0,0,4679,9999,0,0,163,11,0,1980-01-06T03:02:29,0,0,0
1633357188,365000,150351,138004000,0,2178,0,76,637813700,0,0,649519424,0,0,0,4692,9999,0,0,190,11,0,1980-01-06T03:02:30,0,0,0
1633357189,343000,151328,138005000,0,2178,0,76,637813700,0,0,649519424,0,0,0,4705,9999,0,0,216,11,0,1980-01-06T03:02:31,0,0,0
1633357190,513000,152499,138006000,0,2178,0,76,637813700,0,0,649519424,0,0,0,4718,9999,0,0,245,11,0,1980-01-06T03:02:32,0,0,0
1633357191,347000,153333,138007000,0,2178,0,76,637813700,0,0,649519424,0,0,0,4732,9999,0,0,12,11,0,1980-01-06T03:02:33,0,0,0
1633357192,361000,154347,138008000,0,2178,0,76,637813700,0,0,649519424,0,0,0,4745,9999,0,0,34,11,0,1980-01-06T03:02:34,0,0,0
1633357193,337000,155323,138009000,0,2178,0,76,637813700,0,0,649519424,0,0,0,4758,9999,0,0,60,11,0,1980-01-06T03:02:35,0,0,0
1633357194,359000,156345,138010000,0,2178,0,76,637813700,0,0,649519424,0,0,0,4771,9999,0,0,87,11,0,1980-01-06T03:02:36,0,0,0
1633357195,333000,157319,138011000,0,2178,0,76,637813700,0,0,649519424,0,0,0,4784,9999,0,0,113,11,0,1980-01-06T03:02:37,0,0,0
1633357196,500000,158486,138012000,0,2178,0,76,637813700,0,0,649519424,0,0,0,4797,9999,0,0,142,11,0,1980-01-06T03:02:38,0,0,0
1633357197,330000,159316,138013000,0,2178,0,76,637813700,0,0,649519424,0,0,0,4810,9999,0,0,165,11,0,1980-01-06T03:02:39,0,0,0
1633357198,340000,160326,138014000,0,2178,0,76,637813700,0,0,649519424,0,0,0,4823,9999,0,0,187,11,0,1980-01-06T03:02:40,0,0,0
1633357199,363000,161348,138015000,0,2178,0,76,637813700,0,0,649519424,0,0,0,4836,9999,0,0,214,11,0,1980-01-06T03:02:41,0,0,0
1633357200,336000,162322,138016000,0,2178,0,76,637813700,0,0,649519424,0,0,0,4849,9999,0,0,240,11,0,1980-01-06T03:02:42,0,0,0
1633357201,357000,163343,138017000,0,2178,0,76,637813700,0,0,649519424,0,0,0,4862,9999,0,0,10,11,0,1980-01-06T03:02:43,0,0,0
1633357202,523000,164509,138018000,0,2178,0,76,637813700,0,0,649519424,0,0,0,4875,9999,0,0,40,11,0,1980-01-06T03:02:44,0,0,0
1633357203,341000,165327,138019000,0,2178,0,76,637813700,0,0,649519424,0,0,0,4888,9999,0,0,58,11,0,1980-01-06T03:02:45,0,0,0
1633357204,363000,166349,138020000,0,2178,0,76,637813700,0,0,649519424,0,0,0,4900,9999,0,0,85,11,0,1980-01-06T03:02:46,0,0,0
1633357205,337000,167323,138021000,0,2178,0,76,637813700,0,0,649519488,0,0,0,4913,9999,0,0,111,11,0,1980-01-06T03:02:47,0,0,0
1633357206,360000,168346,138022000,0,2178,0,76,637813700,0,0,649519488,0,0,0,4926,9999,0,0,138,11,0,1980-01-06T03:02:48,0,0,0
1633357207,334000,169320,138023000,0,2178,0,76,637813700,0,0,649519488,0,0,0,4939,9999,0,0,163,11,0,1980-01-06T03:02:49,0,0,0
1633357208,500000,170486,138024000,0,2178,0,76,637813700,0,0,649519488,0,0,0,4951,9999,0,0,193,11,0,1980-01-06T03:02:50,0,0,0
1633357209,366000,171352,138025000,0,2178,0,76,637813700,0,0,649519488,0,0,0,4964,9999,0,0,212,11,0,1980-01-06T03:02:51,0,0,0
1633357210,340000,172326,138026000,0,2178,0,76,637813700,0,0,649519488,0,0,0,4976,9999,0,0,238,11,0,1980-01-06T03:02:52,0,0,0
1633357211,362000,173348,138027000,0,2178,0,76,637813700,0,0,649519488,0,0,0,4989,9999,0,0,9,11,0,1980-01-06T03:02:53,0,0,0
1633357212,337000,174322,138028000,0,2178,0,76,637813700,0,0,649519488,0,0,0,5001,9999,0,0,35,11,0,1980-01-06T03:02:54,0,0,0
1633357213,359000,175345,138029000,0,2178,0,76,637813700,0,0,649519488,0,0,0,5014,9999,0,0,61,11,0,1980-01-06T03:02:55,0,0,0
1633357214,524000,176510,138030000,0,2178,0,76,637813700,0,0,649519552,0,0,0,5026,9999,0,0,91,11,0,1980-01-06T03:02:56,0,0,0
1633357215,341000,177327,138031000,0,2178,0,76,637813700,0,0,649519552,0,0,0,5039,9999,0,0,109,11,0,1980-01-06T03:02:57,0,0,0
1633357216,362000,178348,138032000,0,2178,0,76,637813700,0,0,649519552,0,0,0,5051,9999,0,0,136,11,0,1980-01-06T03:02:58,0,0,0
1633357217,335000,179321,138033000,0,2178,0,76,637813700,0,0,649519552,0,0,0,5064,9999,0,0,162,11,0,1980-01-06T03:02:59,0,0,0
1633357218,357000,180343,138034000,0,2178,0,76,637813700,0,0,649519552,0,0,0,5076,9999,0,0,188,11,0,1980-01-06T03:03:00,0,0,0
1633357219,331000,181317,138035000,0,2178,0,76,637813700,0,0,649519616,0,0,0,5088,9999,0,0,214,11,0,1980-01-06T03:03:01,0,0,0
1633357220,495000,182481,138036000,0,2178,0,76,637813700,0,0,649519616,0,0,0,5100,9999,0,0,244,11,0,1980-01-06T03:03:02,0,0,0
1633357221,360000,183346,138037000,0,2178,0,76,637813700,0,0,649519616,0,0,0,5113,9999,0,0,7,11,0,1980-01-06T03:03:03,0,0,0
1633357222,334000,184319,138038000,0,2178,0,76,637813700,0,0,649519616,0,0,0,5125,9999,0,0,33,11,0,1980-01-06T03:03:04,0,0,0
1633357223,355000,185340,138039000,0,2178,0,76,637813700,0,0,649519616,0,0,0,5137,9999,0,0,60,11,0,1980-01-06T03:03:05,0,0,0
1633357224,328000,186314,138040000,0,2178,0,76,637813700,0,0,649519616,0,0,0,5149,9999,0,0,85,11,0,1980-01-06T03:03:06,0,0,0
1633357225,349000,187334,138041000,0,2178,0,76,637813700,0,0,649519616,0,0,0,5161,9999,0,0,112,11,0,1980-01-06T03:03:07,0,0,0
1633357226,513000,188499,138042000,0,2178,0,76,637813700,0,0,649519616,0,0,0,5173,9999,0,0,142,11,0,1980-01-06T03:03:08,0,0,0
1633357227,330000,189316,138043000,0,2178,0,76,637813700,0,0,649519680,0,0,0,5185,9999,0,0,160,11,0,1980-01-06T03:03:09,0,0,0
1633357228,351000,190336,138044000,0,2178,0,76,637813700,0,0,649519680,0,0,0,5198,9999,0,0,187,11,0,1980-01-06T03:03:10,0,0,0
1633357229,372000,191358,138045000,0,2178,0,76,637813700,0,0,649519680,0,0,0,5210,9999,0,0,214,11,0,1980-01-06T03:03:11,0,0,0
1633357230,347000,192333,138046000,0,2178,0,76,637813700,0,0,649519680,0,0,0,5221,9999,0,0,239,11,0,1980-01-06T03:03:12,0,0,0
1633357231,369000,193355,138047000,0,2178,0,76,637813700,0,0,649519680,0,0,0,5233,9999,0,0,10,11,0,1980-01-06T03:03:13,0,0,0
1633357232,535000,194521,138048000,0,2178,0,76,637813700,0,0,649519680,0,0,0,5245,9999,0,0,40,11,0,1980-01-06T03:03:14,0,0,0
1633357233,354000,195339,138049000,0,2178,0,76,637813700,0,0,649519680,0,0,0,5257,9999,0,0,58,11,0,1980-01-06T03:03:15,0,0,0
1633357234,376000,196361,138050000,0,2178,0,76,637813700,0,0,649519680,0,0,0,5269,9999,0,0,85,11,0,1980-01-06T03:03:16,0,0,0
1633357235,350000,197336,138051000,0,2178,0,76,637813700,0,0,649519680,0,0,0,5281,9999,0,0,110,11,0,1980-01-06T03:03:17,0,0,0
1633357236,372000,198358,138052000,0,2178,0,76,637813700,0,0,649519680,0,0,0,5293,9999,0,0,137,11,0,1980-01-06T03:03:18,0,0,0
1633357237,335000,199320,138053000,0,2178,0,76,637813700,0,0,649519680,0,0,0,5305,9999,0,0,158,11,0,1980-01-06T03:03:19,0,0,0
1633357238,499000,200485,138054000,0,2178,0,76,637813700,0,0,649519680,0,0,0,5316,9999,0,0,188,11,0,1980-01-06T03:03:20,0,0,0
1633357239,376000,201362,138055000,0,2178,0,76,637813700,0,0,649519744,0,0,0,5328,9999,0,0,212,11,0,1980-01-06T03:03:21,0,0,0
1633357240,349000,202335,138056000,0,2178,0,76,637813700,0,0,649519744,0,0,0,5340,9999,0,0,238,11,0,1980-01-06T03:03:22,0,0,0
1633357241,370000,203355,138057000,0,2178,0,76,637813700,0,0,649519744,0,0,0,5352,9999,0,0,8,11,0,1980-01-06T03:03:23,0,0,0
1633357242,343000,204328,138058000,0,2178,0,76,637813700,0,0,649519744,0,0,0,5363,9999,0,0,34,11,0,1980-01-06T03:03:24,0,0,0
1633357243,352000,205337,138059000,0,2178,0,76,637813700,0,0,649519744,0,0,0,5375,9999,0,0,56,11,0,1980-01-06T03:03:25,0,0,0
1633357244,517000,206502,138060000,0,2178,0,76,637813700,0,0,649519744,0,0,0,5386,9999,0,0,86,11,0,1980-01-06T03:03:26,0,0,0
1633357245,347000,207333,138061000,0,2178,0,76,637813700,0,0,649519744,0,0,0,5398,9999,0,0,109,11,0,1980-01-06T03:03:27,0,0,0
1633357246,370000,208355,138062000,0,2178,0,76,637813700,0,0,649519744,0,0,0,5410,9999,0,0,136,11,0,1980-01-06T03:03:28,0,0,0
1633357247,344000,209329,138063000,0,2178,0,76,637813700,0,0,649519808,0,0,0,5421,9999,0,0,161,11,0,1980-01-06T03:03:29,0,0,0
1633357248,366000,210352,138064000,0,2178,0,76,637813700,0,0,649519808,0,0,0,5433,9999,0,0,188,11,0,1980-01-06T03:03:30,0,0,0
1633357249,377000,211363,138065000,0,2178,0,76,637813700,0,0,649519872,0,0,0,5444,9999,0,0,210,11,0,1980-01-06T03:03:31,0,0,0
1633357250,496000,212482,138066000,0,2178,0,76,637813700,0,0,649519872,0,0,0,5456,9999,0,0,239,11,0,1980-01-06T03:03:32,0,0,0
1633357251,375000,213360,138067000,0,2178,0,76,637813700,0,0,649519872,0,0,0,5467,9999,0,0,7,11,0,1980-01-06T03:03:33,0,0,0
1633357252,348000,214334,138068000,0,2178,0,76,637813700,0,0,649519872,0,0,0,5479,9999,0,0,32,11,0,1980-01-06T03:03:34,0,0,0
1633357253,371000,215356,138069000,0,2178,0,76,637813700,0,0,649519872,0,0,0,5490,9999,0,0,59,11,0,1980-01-06T03:03:35,0,0,0
1633357254,333000,216318,138070000,0,2178,0,76,637813700,0,0,649519872,0,0,0,5501,9999,0,0,80,11,0,1980-01-06T03:03:36,0,0,0
1633357255,354000,217340,138071000,0,2178,0,76,637813700,0,0,649519872,0,0,0,5513,9999,0,0,107,11,0,1980-01-06T03:03:37,0,0,0
1633357256,519000,218505,138072000,0,2178,0,76,637813700,0,0,649519872,0,0,0,5524,9999,0,0,137,11,0,1980-01-06T03:03:38,0,0,0
1633357257,349000,219335,138073000,0,2178,0,76,637813700,0,0,649519872,0,0,0,5535,9999,0,0,160,11,0,1980-01-06T03:03:39,0,0,0
1633357258,371000,220357,138074000,0,2178,0,76,637813700,0,0,649519872,0,0,0,5547,9999,0,0,186,11,0,1980-01-06T03:03:40,0,0,0
1633357259,344000,221329,138075000,0,2178,0,76,637813700,0,0,649519872,0,0,0,5558,9999,0,0,212,11,0,1980-01-06T03:03:41,0,0,0
1633357260,353000,222339,138076000,0,2178,0,76,637813700,0,0,649519936,0,0,0,5569,9999,0,0,234,11,0,1980-01-06T03:03:42,0,0,0
1633357261,375000,223360,138077000,0,2178,0,76,637813700,0,0,649519936,0,0,0,5580,9999,0,0,5,11,0,1980-01-06T03:03:43,0,0,0
1633357262,492000,224478,138078000,0,2178,0,76,637813700,0,0,649519936,0,0,0,5591,9999,0,0,34,11,0,1980-01-06T03:03:44,0,0,0
1633357263,371000,225357,138079000,0,2178,0,76,637813700,0,0,649519936,0,0,0,5603,9999,0,0,58,11,0,1980-01-06T03:03:45,0,0,0
1633357264,345000,226331,138080000,0,2178,0,76,637813700,0,0,649519936,0,0,0,5614,9999,0,0,83,11,0,1980-01-06T03:03:46,0,0,0
1633357265,367000,227352,138081000,0,2178,0,76,637813700,0,0,649519936,0,0,0,5625,9999,0,0,110,11,0,1980-01-06T03:03:47,0,0,0
1633357266,328000,228314,138082000,0,2178,0,76,637813700,0,0,649520000,0,0,0,5636,9999,0,0,131,11,0,1980-01-06T03:03:48,0,0,0
1633357267,350000,229335,138083000,0,2178,0,76,637813700,0,0,649520000,0,0,0,5647,9999,0,0,158,11,0,1980-01-06T03:03:49,0,0,0
1633357268,516000,230501,138084000,0,2178,0,76,637813700,0,0,649520064,0,0,0,5658,9999,0,0,188,11,0,1980-01-06T03:03:50,0,0,0
1633357269,346000,231332,138085000,0,2178,0,76,637813700,0,0,649520064,0,0,0,5669,9999,0,0,211,11,0,1980-01-06T03:03:51,0,0,0
1633357270,369000,232354,138086000,0,2178,0,76,637813700,0,0,649520064,0,0,0,5680,9999,0,0,238,11,0,1980-01-06T03:03:52,0,0,0
1633357271,330000,233316,138087000,0,2178,0,76,637813700,0,0,649520064,0,0,0,5691,9999,0,0,3,11,0,1980-01-06T03:03:53,0,0,0
1633357272,352000,234338,138088000,0,2178,0,76,637813700,0,0,649520064,0,0,0,5702,9999,0,0,30,11,0,1980-01-06T03:03:54,0,0,0
1633357273,374000,235360,138089000,0,2178,0,76,637813700,0,0,649520064,0,0,0,5713,9999,0,0,57,11,0,1980-01-06T03:03:55,0,0,0
1633357274,540000,236525,138090000,0,2178,0,76,637813700,0,0,649520128,0,0,0,5724,9999,0,0,87,11,0,1980-01-06T03:03:56,0,0,0
1633357275,370000,237356,138091000,0,2178,0,76,637813700,0,0,649520128,0,0,0,5735,9999,0,0,109,11,0,1980-01-06T03:03:57,0,0,0
1633357276,345000,238330,138092000,0,2178,0,76,637813700,0,0,649520128,0,0,0,5746,9999,0,0,135,11,0,1980-01-06T03:03:58,0,0,0
1633357277,355000,239338,138093000,0,2178,0,76,637813700,0,0,649520128,0,0,0,5757,9999,0,0,157,11,0,1980-01-06T03:03:59,0,0,0
1633357278,378000,240361,138094000,0,2178,0,76,637813700,0,0,649520128,0,0,0,5767,9999,0,0,184,11,0,1980-01-06T03:04:00,0,0,0
1633357279,353000,241334,138095000,0,2178,0,76,637813700,0,0,649520128,0,0,0,5778,9999,0,0,210,11,0,1980-01-06T03:04:01,0,0,0
1633357280,519000,242500,138096000,0,2178,0,76,637813700,0,0,649520128,0,0,0,5789,9999,0,0,240,11,0,1980-01-06T03:04:02,0,0,0
1633357281,351000,243330,138097000,0,2178,0,76,637813700,0,0,649520128,0,0,0,5800,9999,0,0,6,11,0,1980-01-06T03:04:03,0,0,0
1633357282,374000,244353,138098000,0,2178,0,76,637813700,0,0,649520128,0,0,0,5811,9999,0,0,33,11,0,1980-01-06T03:04:04,0,0,0
1633357283,337000,245314,138099000,0,2178,0,76,637813700,0,0,649520192,0,0,0,5821,9999,0,0,54,11,0,1980-01-06T03:04:05,0,0,0
1633357284,360000,246337,138100000,0,2178,0,76,637813700,0,0,649520192,0,0,0,5832,9999,0,0,81,11,0,1980-01-06T03:04:06,0,0,0
1633357285,383000,247358,138101000,0,2178,0,76,637813700,0,0,649520192,0,0,0,5843,9999,0,0,108,11,0,1980-01-06T03:04:07,0,0,0
1633357286,501000,248476,138102000,0,2178,0,76,637813700,0,0,649520192,0,0,0,5854,9999,0,0,136,11,0,1980-01-06T03:04:08,0,0,0
1633357287,381000,249354,138103000,0,2178,0,76,637813700,0,0,649520192,0,0,0,5864,9999,0,0,160,11,0,1980-01-06T03:04:09,0,0,0
1633357288,404000,250376,138104000,0,2178,0,76,637813700,0,0,649520256,0,0,0,5875,9999,0,0,187,11,0,1980-01-06T03:04:10,0,0,0
1633357289,367000,251338,138105000,0,2178,0,76,637813700,0,0,649520256,0,0,0,5885,9999,0,0,208,11,0,1980-01-06T03:04:11,0,0,0
1633357290,389000,252360,138106000,0,2178,0,76,637813700,0,0,649520320,0,0,0,5896,9999,0,0,235,11,0,1980-01-06T03:04:12,0,0,0
1633357291,364000,253334,138107000,0,2178,0,76,637813700,0,0,649520320,0,0,0,5907,9999,0,0,5,11,0,1980-01-06T03:04:13,0,0,0
1633357292,531000,254500,138108000,0,2178,0,76,637813700,0,0,649520320,0,0,0,5917,9999,0,0,34,11,0,1980-01-06T03:04:14,0,0,0
1633357293,363000,255330,138109000,0,2178,0,76,637813700,0,0,649520320,0,0,0,5928,9999,0,0,57,11,0,1980-01-06T03:04:15,0,0,0
1633357294,373000,256339,138110000,0,2178,0,76,637813700,0,0,649520320,0,0,0,5938,9999,0,0,79,11,0,1980-01-06T03:04:16,0,0,0
1633357295,348000,257314,138111000,0,2178,0,76,637813700,0,0,649520320,0,0,0,5949,9999,0,0,105,11,0,1980-01-06T03:04:17,0,0,0
1633357296,371000,258336,138112000,0,2178,0,76,637813700,0,0,649520320,0,0,0,5959,9999,0,0,132,11,0,1980-01-06T03:04:18,0,0,0
1633357297,395000,259358,138113000,0,2178,0,76,637813700,0,0,649520320,0,0,0,5970,9999,0,0,159,11,0,1980-01-06T03:04:19,0,0,0
1633357298,513000,260476,138114000,0,2178,0,76,637813700,0,0,649520384,0,0,0,5980,9999,0,0,187,11,0,1980-01-06T03:04:20,0,0,0
1633357299,392000,261354,138115000,0,2178,0,76,637813700,0,0,649520384,0,0,0,5991,9999,0,0,211,11,0,1980-01-06T03:04:21,0,0,0
1633357300,355000,262316,138116000,0,2178,0,76,637813700,0,0,649520384,0,0,0,6001,9999,0,0,232,11,0,1980-01-06T03:04:22,0,0,0
1633357301,379000,263338,138117000,0,2178,0,76,637813700,0,0,649520384,0,0,0,6012,9999,0,0,3,11,0,1980-01-06T03:04:23,0,0,0
1633357302,401000,264359,138118000,0,2178,0,76,637813700,0,0,649520384,0,0,0,6022,9999,0,0,30,11,0,1980-01-06T03:04:24,0,0,0
1633357303,376000,265334,138119000,0,2178,0,76,637813700,0,0,649520448,0,0,0,6032,9999,0,0,55,11,0,1980-01-06T03:04:25,0,0,0
1633357304,543000,266500,138120000,0,2178,0,76,637813700,0,0,649520448,0,0,0,6043,9999,0,0,85,11,0,1980-01-06T03:04:26,0,0,0
1633357305,362000,267318,138121000,0,2178,0,76,637813700,0,0,649520512,0,0,0,6053,9999,0,0,103,11,0,1980-01-06T03:04:27,0,0,0
1633357306,385000,268339,138122000,0,2178,0,76,637813700,0,0,649520512,0,0,0,6063,9999,0,0,130,11,0,1980-01-06T03:04:28,0,0,0
1633357307,408000,269362,138123000,0,2178,0,76,637813700,0,0,649520512,0,0,0,6074,9999,0,0,157,11,0,1980-01-06T03:04:29,0,0,0
1633357308,383000,270336,138124000,0,2178,0,76,637813700,0,0,649520512,0,0,0,6084,9999,0,0,183,11,0,1980-01-06T03:04:30,0,0,0
1633357309,406000,271358,138125000,0,2178,0,76,637813700,0,0,649520576,0,0,0,6094,9999,0,0,209,11,0,1980-01-06T03:04:31,0,0,0
1633357310,525000,272476,138126000,0,2178,0,76,637813700,0,0,649520576,0,0,0,6104,9999,0,0,238,11,0,1980-01-06T03:04:32,0,0,0
1633357311,392000,273341,138127000,0,2178,0,76,637813700,0,0,649520576,0,0,0,6115,9999,0,0,1,11,0,1980-01-06T03:04:33,0,0,0
1633357312,366000,274315,138128000,0,2178,0,76,637813700,0,0,649520576,0,0,0,6125,9999,0,0,27,11,0,1980-01-06T03:04:34,0,0,0
1633357313,388000,275336,138129000,0,2178,0,76,637813700,0,0,649520576,0,0,0,6135,9999,0,0,54,11,0,1980-01-06T03:04:35,0,0,0
1633357314,411000,276358,138130000,0,2178,0,76,637813700,0,0,649520576,0,0,0,6145,9999,0,0,81,11,0,1980-01-06T03:04:36,0,0,0
1633357315,385000,277331,138131000,0,2178,0,76,637813700,0,0,649520576,0,0,0,6155,9999,0,0,106,11,0,1980-01-06T03:04:37,0,0,0
1633357316,552000,278497,138132000,0,2178,0,76,637813700,0,0,649520640,0,0,0,6166,9999,0,0,136,11,0,1980-01-06T03:04:38,0,0,0
1633357317,371000,279315,138133000,0,2178,0,76,637813700,0,0,649520640,0,0,0,6176,9999,0,0,154,11,0,1980-01-06T03:04:39,0,0,0
1633357318,394000,280337,138134000,0,2178,0,76,637813700,0,0,649520640,0,0,0,6186,9999,0,0,181,11,0,1980-01-06T03:04:40,0,0,0
1633357319,417000,281359,138135000,0,2178,0,76,637813700,0,0,649520640,0,0,0,6196,9999,0,0,208,11,0,1980-01-06T03:04:41,0,0,0
1633357320,392000,282333,138136000,0,2178,0,76,637813700,0,0,649520704,0,0,0,6206,9999,0,0,233,11,0,1980-01-06T03:04:42,0,0,0
1633357321,415000,283355,138137000,0,2178,0,76,637813700,0,0,649520704,0,0,0,6216,9999,0,0,4,11,0,1980-01-06T03:04:43,0,0,0
1633357322,534000,284473,138138000,0,2178,0,76,637813700,0,0,649520768,0,0,0,6226,9999,0,0,33,11,0,1980-01-06T03:04:44,0,0,0
1633357323,401000,285338,138139000,0,2178,0,76,637813700,0,0,649520768,0,0,0,6236,9999,0,0,52,11,0,1980-01-06T03:04:45,0,0,0
1633357324,424000,286360,138140000,0,2178,0,76,637813700,0,0,649520768,0,0,0,6246,9999,0,0,79,11,0,1980-01-06T03:04:46,0,0,0
1633357325,399000,287335,138141000,0,2178,0,76,637813700,0,0,649520768,0,0,0,6256,9999,0,0,105,11,0,1980-01-06T03:04:47,0,0,0
1633357326,422000,288357,138142000,0,2178,0,76,637813700,0,0,649520768,0,0,0,6266,9999,0,0,131,11,0,1980-01-06T03:04:48,0,0,0
1633357327,397000,289331,138143000,0,2178,0,76,637813700,0,0,649520768,0,0,0,6276,9999,0,0,157,11,0,1980-01-06T03:04:49,0,0,0
1633357328,563000,290496,138144000,0,2178,0,76,637813700,0,0,649520768,0,0,0,6286,9999,0,0,187,11,0,1980-01-06T03:04:50,0,0,0
1633357329,430000,291362,138145000,0,2178,0,76,637813700,0,0,649520832,0,0,0,6296,9999,0,0,206,11,0,1980-01-06T03:04:51,0,0,0
1633357330,406000,292336,138146000,0,2178,0,76,637813700,0,0,649520832,0,0,0,6306,9999,0,0,232,11,0,1980-01-06T03:04:52,0,0,0
1633357331,428000,293358,138147000,0,2178,0,76,637813700,0,0,649520832,0,0,0,6316,9999,0,0,3,11,0,1980-01-06T03:04:53,0,0,0
1633357332,404000,294333,138148000,0,2178,0,76,637813700,0,0,649520896,0,0,0,6326,9999,0,0,29,11,0,1980-01-06T03:04:54,0,0,0
1633357333,428000,295355,138149000,0,2178,0,76,637813700,0,0,649520896,0,0,0,6336,9999,0,0,56,11,0,1980-01-06T03:04:55,0,0,0
1633357334,594000,296520,138150000,0,2178,0,76,637813700,0,0,649520960,0,0,0,6345,9999,0,0,86,11,0,1980-01-06T03:04:56,0,0,0
1633357335,412000,297338,138151000,0,2178,0,76,637813700,0,0,649520960,0,0,0,6355,9999,0,0,104,11,0,1980-01-06T03:04:57,0,0,0
1633357336,435000,298360,138152000,0,2178,0,76,637813700,0,0,649520960,0,0,0,6365,9999,0,0,131,11,0,1980-01-06T03:04:58,0,0,0
1633357337,409000,299333,138153000,0,2178,0,76,637813700,0,0,649520960,0,0,0,6375,9999,0,0,156,11,0,1980-01-06T03:04:59,0,0,0
1633357338,432000,300354,138154000,0,2178,0,76,637813700,0,0,649521024,0,0,0,6385,9999,0,0,183,11,0,1980-01-06T03:05:00,0,0,0
1633357339,394000,301316,138155000,0,2178,0,76,637813700,0,0,649521024,0,0,0,6394,9999,0,0,204,11,0,1980-01-06T03:05:01,0,0,0
1633357340,561000,302482,138156000,0,2178,0,76,637813700,0,0,649521024,0,0,0,6404,9999,0,0,234,11,0,1980-01-06T03:05:02,0,0,0
1633357341,440000,303360,138157000,0,2178,0,76,637813700,0,0,649521024,0,0,0,6414,9999,0,0,2,11,0,1980-01-06T03:05:03,0,0,0
1633357342,415000,304334,138158000,0,2178,0,76,637813700,0,0,649521024,0,0,0,6424,9999,0,0,28,11,0,1980-01-06T03:05:04,0,0,0
1633357343,438000,305356,138159000,0,2178,0,76,637813700,0,0,649521024,0,0,0,6433,9999,0,0,54,11,0,1980-01-06T03:05:05,0,0,0
1633357344,414000,306331,138160000,0,2178,0,76,637813700,0,0,649521088,0,0,0,6443,9999,0,0,80,11,0,1980-01-06T03:05:06,0,0,0
1633357345,425000,307340,138161000,0,2178,0,76,637813700,0,0,649521152,0,0,0,6453,9999,0,0,102,11,0,1980-01-06T03:05:07,0,0,0
1633357346,592000,308506,138162000,0,2178,0,76,637813700,0,0,649521152,0,0,0,6463,9999,0,0,132,11,0,1980-01-06T03:05:08,0,0,0
1633357347,423000,309337,138163000,0,2178,0,76,637813700,0,0,649521152,0,0,0,6472,9999,0,0,155,11,0,1980-01-06T03:05:09,0,0,0
1633357348,446000,310359,138164000,0,2178,0,76,637813700,0,0,649521152,0,0,0,6482,9999,0,0,181,11,0,1980-01-06T03:05:10,0,0,0
1633357349,422000,311334,138165000,0,2178,0,76,637813700,0,0,649521216,0,0,0,6491,9999,0,0,207,11,0,1980-01-06T03:05:11,0,0,0
1633357350,444000,312355,138166000,0,2178,0,76,637813700,0,0,649521216,0,0,0,6501,9999,0,0,234,11,0,1980-01-06T03:05:12,0,0,0
1633357351,407000,313316,138167000,0,2178,0,76,637813700,0,0,649521216,0,0,0,6511,9999,0,0,255,11,0,1980-01-06T03:05:13,0,0,0
1633357352,574000,314482,138168000,0,2178,0,76,637813700,0,0,649521280,0,0,0,6520,9999,0,0,29,11,0,1980-01-06T03:05:14,0,0,0
1633357353,453000,315361,138169000,0,2178,0,76,637813700,0,0,649521280,0,0,0,6530,9999,0,0,53,11,0,1980-01-06T03:05:15,0,0,0
1633357354,428000,316335,138170000,0,2178,0,76,637813700,0,0,649521280,0,0,0,6539,9999,0,0,78,11,0,1980-01-06T03:05:16,0,0,0
1633357355,452000,317357,138171000,0,2178,0,76,637813700,0,0,649521280,0,0,0,6549,9999,0,0,105,11,0,1980-01-06T03:05:17,0,0,0
1633357356,414000,318319,138172000,0,2178,0,76,637813700,0,0,649521280,0,0,0,6559,9999,0,0,126,11,0,1980-01-06T03:05:18,0,0,0
1633357357,437000,319341,138173000,0,2178,0,76,637813700,0,0,649521280,0,0,0,6568,9999,0,0,153,11,0,1980-01-06T03:05:19,0,0,0
1633357358,604000,320507,138174000,0,2178,0,76,637813700,0,0,649521344,0,0,0,6578,9999,0,0,183,11,0,1980-01-06T03:05:20,0,0,0
1633357359,436000,321337,138175000,0,2178,0,76,637813700,0,0,649521408,0,0,0,6587,9999,0,0,206,11,0,1980-01-06T03:05:21,0,0,0
1633357360,459000,322359,138176000,0,2178,0,76,637813700,0,0,649521408,0,0,0,6597,9999,0,0,232,11,0,1980-01-06T03:05:22,0,0,0
1633357361,433000,323333,138177000,0,2178,0,76,637813700,0,0,649521408,0,0,0,6606,9999,0,0,2,11,0,1980-01-06T03:05:23,0,0,0
1633357362,444000,324342,138178000,0,2178,0,76,637813700,0,0,649521472,0,0,0,6615,9999,0,0,24,11,0,1980-01-06T03:05:24,0,0,0
1633357363,419000,325316,138179000,0,2178,0,76,637813700,0,0,649521472,0,0,0,6625,9999,0,0,50,11,0,1980-01-06T03:05:25,0,0,0
1633357364,585000,326482,138180000,0,2178,0,76,637813700,0,0,649521472,0,0,0,6634,9999,0,0,80,11,0,1980-01-06T03:05:26,0,0,0
1633357365,465000,327360,138181000,0,2178,0,76,637813700,0,0,649521472,0,0,0,6644,9999,0,0,103,11,0,1980-01-06T03:05:27,0,0,0
1633357366,440000,328335,138182000,0,2178,0,76,637813700,0,0,649521472,0,0,0,6653,9999,0,0,129,11,0,1980-01-06T03:05:28,0,0,0
1633357367,463000,329356,138183000,0,2178,0,76,637813700,0,0,649521472,0,0,0,6663,9999,0,0,156,11,0,1980-01-06T03:05:29,0,0,0
1633357368,473000,330366,138184000,0,2178,0,76,637813700,0,0,649521536,0,0,0,6672,9999,0,0,178,11,0,1980-01-06T03:05:30,0,0,0
1633357369,449000,331341,138185000,0,2178,0,76,637813700,0,0,649521600,0,0,0,6681,9999,0,0,204,11,0,1980-01-06T03:05:31,0,0,0
1633357370,615000,332505,138186000,0,2178,0,76,637813700,0,0,649521600,0,0,0,6691,9999,0,0,234,11,0,1980-01-06T03:05:32,0,0,0
1633357371,446000,333336,138187000,0,2178,0,76,637813700,0,0,649521664,0,0,0,6700,9999,0,0,0,11,0,1980-01-06T03:05:33,0,0,0
1633357372,470000,334358,138188000,0,2178,0,76,637813700,0,0,649521664,0,0,0,6709,9999,0,0,27,11,0,1980-01-06T03:05:34,0,0,0
1633357373,433000,335320,138189000,0,2178,0,76,637813700,0,0,649521664,0,0,0,6719,9999,0,0,48,11,0,1980-01-06T03:05:35,0,0,0
1633357374,456000,336342,138190000,0,2178,0,76,637813700,0,0,649521664,0,0,0,6728,9999,0,0,75,11,0,1980-01-06T03:05:36,0,0,0
1633357375,430000,337316,138191000,0,2178,0,76,637813700,0,0,649521728,0,0,0,6737,9999,0,0,101,11,0,1980-01-06T03:05:37,0,0,0
1633357376,597000,338482,138192000,0,2178,0,76,637813700,0,0,649521728,0,0,0,6746,9999,0,0,131,11,0,1980-01-06T03:05:38,0,0,0
1633357377,476000,339360,138193000,0,2178,0,76,637813700,0,0,649521728,0,0,0,6756,9999,0,0,154,11,0,1980-01-06T03:05:39,0,0,0
1633357378,451000,340333,138194000,0,2178,0,76,637813700,0,0,649521728,0,0,0,6765,9999,0,0,180,11,0,1980-01-06T03:05:40,0,0,0
1633357379,462000,341343,138195000,0,2178,0,76,637813700,0,0,649521728,0,0,0,6774,9999,0,0,202,11,0,1980-01-06T03:05:41,0,0,0
1633357380,437000,342317,138196000,0,2178,0,76,637813700,0,0,649521792,0,0,0,6783,9999,0,0,228,11,0,1980-01-06T03:05:42,0,0,0
1633357381,460000,343340,138197000,0,2178,0,76,637813700,0,0,649521856,0,0,0,6793,9999,0,0,255,11,0,1980-01-06T03:05:43,0,0,0
1633357382,627000,344505,138198000,0,2178,0,76,637813700,0,0,649521856,0,0,0,6802,9999,0,0,28,11,0,1980-01-06T03:05:44,0,0,0
1633357383,458000,345336,138199000,0,2178,0,76,637813700,0,0,649521856,0,0,0,6811,9999,0,0,51,11,0,1980-01-06T03:05:45,0,0,0
1633357384,482000,346358,138200000,0,2178,0,76,637813700,0,0,649521920,0,0,0,6820,9999,0,0,78,11,0,1980-01-06T03:05:46,0,0,0
1633357385,444000,347320,138201000,0,2178,0,76,637813700,0,0,649521920,0,0,0,6829,9999,0,0,99,11,0,1980-01-06T03:05:47,0,0,0
1633357386,466000,348341,138202000,0,2178,0,76,637813700,0,0,649521920,0,0,0,6838,9999,0,0,126,11,0,1980-01-06T03:05:48,0,0,0
1633357387,441000,349315,138203000,0,2178,0,76,637813700,0,0,649521920,0,0,0,6848,9999,0,0,152,11,0,1980-01-06T03:05:49,0,0,0
1633357388,608000,350481,138204000,0,2178,0,76,637813700,0,0,649521984,0,0,0,6857,9999,0,0,181,11,0,1980-01-06T03:05:50,0,0,0
1633357389,487000,351358,138205000,0,2178,0,76,637813700,0,0,649521984,0,0,0,6866,9999,0,0,205,11,0,1980-01-06T03:05:51,0,0,0
1633357390,449000,352320,138206000,0,2178,0,76,637813700,0,0,649522048,0,0,0,6875,9999,0,0,226,11,0,1980-01-06T03:05:52,0,0,0
1633357391,472000,353342,138207000,0,2178,0,76,637813700,0,0,649522048,0,0,0,6884,9999,0,0,253,11,0,1980-01-06T03:05:53,0,0,0
1633357392,447000,354316,138208000,0,2178,0,76,637813700,0,0,649522112,0,0,0,6893,9999,0,0,23,11,0,1980-01-06T03:05:54,0,0,0
1633357393,470000,355338,138209000,0,2178,0,76,637813700,0,0,649522112,0,0,0,6902,9999,0,0,50,11,0,1980-01-06T03:05:55,0,0,0
1633357394,637000,356504,138210000,0,2178,0,76,637813700,0,0,649522176,0,0,0,6911,9999,0,0,79,11,0,1980-01-06T03:05:56,0,0,0
1633357395,469000,357335,138211000,0,2178,0,76,637813700,0,0,649522176,0,0,0,6920,9999,0,0,102,11,0,1980-01-06T03:05:57,0,0,0
1633357396,479000,358344,138212000,0,2178,0,76,637813700,0,0,649522176,0,0,0,6929,9999,0,0,124,11,0,1980-01-06T03:05:58,0,0,0
1633357397,454000,359318,138213000,0,2178,0,76,637813700,0,0,649522176,0,0,0,6938,9999,0,0,150,11,0,1980-01-06T03:05:59,0,0,0
1633357398,477000,360340,138214000,0,2178,0,76,637813700,0,0,649522176,0,0,0,6947,9999,0,0,177,11,0,1980-01-06T03:06:00,0,0,0
1633357399,500000,361362,138215000,0,2178,0,76,637813700,0,0,649522176,0,0,0,6956,9999,0,0,203,11,0,1980-01-06T03:06:01,0,0,0
1633357400,619000,362480,138216000,0,2178,0,76,637813700,0,0,649522304,0,0,0,6965,9999,0,0,232,11,0,1980-01-06T03:06:02,0,0,0
1633357401,498000,363358,138217000,0,2178,0,76,637813700,0,0,649522304,0,0,0,6974,9999,0,0,0,11,0,1980-01-06T03:06:03,0,0,0
1633357402,462000,364320,138218000,0,2178,0,76,637813700,0,0,649522304,0,0,0,6983,9999,0,0,21,11,0,1980-01-06T03:06:04,0,0,0
1633357403,484000,365342,138219000,0,2178,0,76,637813700,0,0,649522368,0,0,0,6992,9999,0,0,48,11,0,1980-01-06T03:06:05,0,0,0
1633357404,459000,366316,138220000,0,2178,0,76,637813700,0,0,649522368,0,0,0,7001,9999,0,0,74,11,0,1980-01-06T03:06:06,0,0,0
1633357405,483000,367338,138221000,0,2178,0,76,637813700,0,0,649522432,0,0,0,7010,9999,0,0,100,11,0,1980-01-06T03:06:07,0,0,0
1633357406,650000,368504,138222000,0,2178,0,76,637813700,0,0,649522432,0,0,0,7019,9999,0,0,130,11,0,1980-01-06T03:06:08,0,0,0
1633357407,468000,369322,138223000,0,2178,0,76,637813700,0,0,649522432,0,0,0,7028,9999,0,0,148,11,0,1980-01-06T03:06:09,0,0,0
1633357408,491000,370344,138224000,0,2178,0,76,637813700,0,0,649522496,0,0,0,7037,9999,0,0,175,11,0,1980-01-06T03:06:10,0,0,0
1633357409,466000,371318,138225000,0,2178,0,76,637813700,0,0,649522496,0,0,0,7045,9999,0,0,201,11,0,1980-01-06T03:06:11,0,0,0
1633357410,490000,372340,138226000,0,2178,0,76,637813700,0,0,649522496,0,0,0,7054,9999,0,0,228,11,0,1980-01-06T03:06:12,0,0,0
1633357411,513000,373363,138227000,0,2178,0,76,637813700,0,0,649522560,0,0,0,7063,9999,0,0,255,11,0,1980-01-06T03:06:13,0,0,0
1633357412,632000,374480,138228000,0,2178,0,76,637813700,0,0,649522560,0,0,0,7072,9999,0,0,28,11,0,1980-01-06T03:06:14,0,0,0
1633357413,499000,375347,138229000,0,2178,0,76,637813700,0,0,649522624,0,0,0,7081,9999,0,0,47,11,0,1980-01-06T03:06:15,0,0,0
1633357414,474000,376320,138230000,0,2178,0,76,637813700,0,0,649522624,0,0,0,7090,9999,0,0,73,11,0,1980-01-06T03:06:16,0,0,0
1633357415,496000,377342,138231000,0,2178,0,76,637813700,0,0,649522624,0,0,0,7099,9999,0,0,100,11,0,1980-01-06T03:06:17,0,0,0
1633357416,471000,378316,138232000,0,2178,0,76,637813700,0,0,649522688,0,0,0,7107,9999,0,0,125,11,0,1980-01-06T03:06:18,0,0,0
1633357417,495000,379338,138233000,0,2178,0,76,637813700,0,0,649522688,0,0,0,7116,9999,0,0,152,11,0,1980-01-06T03:06:19,0,0,0
1633357418,661000,380504,138234000,0,2178,0,76,637813700,0,0,649522752,0,0,0,7125,9999,0,0,182,11,0,1980-01-06T03:06:20,0,0,0
1633357419,480000,381322,138235000,0,2178,0,76,637813700,0,0,649522752,0,0,0,7134,9999,0,0,200,11,0,1980-01-06T03:06:21,0,0,0
1633357420,504000,382344,138236000,0,2178,0,76,637813700,0,0,649522752,0,0,0,7142,9999,0,0,227,11,0,1980-01-06T03:06:22,0,0,0
1633357421,478000,383318,138237000,0,2178,0,76,637813700,0,0,649522816,0,0,0,7151,9999,0,0,253,11,0,1980-01-06T03:06:23,0,0,0
1633357422,500000,384339,138238000,0,2178,0,76,637813700,0,0,649522880,0,0,0,7160,9999,0,0,23,11,0,1980-01-06T03:06:24,0,0,0
1633357423,523000,385361,138239000,0,2178,0,76,637813700,0,0,649522880,0,0,0,7169,9999,0,0,50,11,0,1980-01-06T03:06:25,0,0,0
1633357424,643000,386479,138240000,0,2178,0,76,637813700,0,0,649522880,0,0,0,7177,9999,0,0,79,11,0,1980-01-06T03:06:26,0,0,0
1633357425,510000,387345,138241000,0,2178,0,76,637813700,0,0,649522944,0,0,0,7186,9999,0,0,98,11,0,1980-01-06T03:06:27,0,0,0
1633357426,485000,388320,138242000,0,2178,0,76,637813700,0,0,649522944,0,0,0,7195,9999,0,0,124,11,0,1980-01-06T03:06:28,0,0,0
1633357427,507000,389341,138243000,0,2178,0,76,637813700,0,0,649522944,0,0,0,7203,9999,0,0,150,11,0,1980-01-06T03:06:29,0,0,0
1633357428,483000,390315,138244000,0,2178,0,76,637813700,0,0,649523008,0,0,0,7212,9999,0,0,176,11,0,1980-01-06T03:06:30,0,0,0
1633357429,506000,391337,138245000,0,2178,0,76,637813700,0,0,649523072,0,0,0,7221,9999,0,0,203,11,0,1980-01-06T03:06:31,0,0,0
1633357430,672000,392503,138246000,0,2178,0,76,637813700,0,0,649523072,0,0,0,7229,9999,0,0,233,11,0,1980-01-06T03:06:32,0,0,0
1633357431,492000,393321,138247000,0,2178,0,76,637813700,0,0,649523072,0,0,0,7238,9999,0,0,251,11,0,1980-01-06T03:06:33,0,0,0
1633357432,514000,394342,138248000,0,2178,0,76,637813700,0,0,649523072,0,0,0,7247,9999,0,0,22,11,0,1980-01-06T03:06:34,0,0,0
1633357433,489000,395317,138249000,0,2178,0,76,637813700,0,0,649523136,0,0,0,7255,9999,0,0,47,11,0,1980-01-06T03:06:35,0,0,0
1633357434,512000,396339,138250000,0,2178,0,76,637813700,0,0,649523136,0,0,0,7264,9999,0,0,74,11,0,1980-01-06T03:06:36,0,0,0
1633357435,535000,397361,138251000,0,2178,0,76,637813700,0,0,649523200,0,0,0,7272,9999,0,0,101,11,0,1980-01-06T03:06:37,0,0,0
1633357436,703000,398527,138252000,0,2178,0,76,637813700,0,0,649523200,0,0,0,7281,9999,0,0,131,11,0,1980-01-06T03:06:38,0,0,0
1633357437,521000,399345,138253000,0,2178,0,76,637813700,0,0,649523264,0,0,0,7290,9999,0,0,149,11,0,1980-01-06T03:06:39,0,0,0
1633357438,496000,400319,138254000,0,2178,0,76,637813700,0,0,649523328,0,0,0,7298,9999,0,0,175,11,0,1980-01-06T03:06:40,0,0,0
1633357439,519000,401341,138255000,0,2178,0,76,637813700,0,0,649523328,0,0,0,7307,9999,0,0,201,11,0,1980-01-06T03:06:41,0,0,0
1633357440,494000,402314,138256000,0,2178,0,76,637813700,0,0,649523328,0,0,0,7315,9999,0,0,227,11,0,1980-01-06T03:06:42,0,0,0
1633357441,504000,403324,138257000,0,2178,0,76,637813700,0,0,649523392,0,0,0,7324,9999,0,0,249,11,0,1980-01-06T03:06:43,0,0,0
1633357442,671000,404490,138258000,0,2178,0,76,637813700,0,0,649523392,0,0,0,7332,9999,0,0,23,11,0,1980-01-06T03:06:44,0,0,0
1633357443,502000,405320,138259000,0,2178,0,76,637813700,0,0,649523392,0,0,0,7341,9999,0,0,46,11,0,1980-01-06T03:06:45,0,0,0
1633357444,524000,406341,138260000,0,2178,0,76,637813700,0,0,649523456,0,0,0,7349,9999,0,0,72,11,0,1980-01-06T03:06:46,0,0,0
1633357445,500000,407315,138261000,0,2178,0,76,637813700,0,0,649523520,0,0,0,7358,9999,0,0,98,11,0,1980-01-06T03:06:47,0,0,0
1633357446,523000,408337,138262000,0,2178,0,76,637813700,0,0,649523520,0,0,0,7366,9999,0,0,125,11,0,1980-01-06T03:06:48,0,0,0
1633357447,533000,409347,138263000,0,2178,0,76,637813700,0,0,649523520,0,0,0,7375,9999,0,0,147,11,0,1980-01-06T03:06:49,0,0,0
1633357448,700000,410513,138264000,0,2178,0,76,637813700,0,0,649523584,0,0,0,7383,9999,0,0,177,11,0,1980-01-06T03:06:50,0,0,0
1633357449,532000,411344,138265000,0,2178,0,76,637813700,0,0,649523584,0,0,0,7392,9999,0,0,200,11,0,1980-01-06T03:06:51,0,0,0
1633357450,508000,412318,138266000,0,2178,0,76,637813700,0,0,649523648,0,0,0,7400,9999,0,0,225,11,0,1980-01-06T03:06:52,0,0,0
1633357451,529000,413339,138267000,0,2178,0,76,637813700,0,0,649523712,0,0,0,7409,9999,0,0,252,11,0,1980-01-06T03:06:53,0,0,0
1633357452,552000,414361,138268000,0,2178,0,76,637813700,0,0,649523712,0,0,0,7417,9999,0,0,23,11,0,1980-01-06T03:06:54,0,0,0
1633357453,515000,415323,138269000,0,2178,0,76,637813700,0,0,649523712,0,0,0,7426,9999,0,0,44,11,0,1980-01-06T03:06:55,0,0,0
1633357454,682000,416489,138270000,0,2178,0,76,637813700,0,0,649523776,0,0,0,7434,9999,0,0,74,11,0,1980-01-06T03:06:56,0,0,0
1633357455,513000,417319,138271000,0,2178,0,76,637813700,0,0,649523776,0,0,0,7442,9999,0,0,97,11,0,1980-01-06T03:06:57,0,0,0
1633357456,536000,418341,138272000,0,2178,0,76,637813700,0,0,649523776,0,0,0,7451,9999,0,0,123,11,0,1980-01-06T03:06:58,0,0,0
1633357457,558000,419362,138273000,0,2178,0,76,637813700,0,0,649523840,0,0,0,7459,9999,0,0,150,11,0,1980-01-06T03:06:59,0,0,0
1633357458,521000,420323,138274000,0,2178,0,76,637813700,0,0,649523904,0,0,0,7468,9999,0,0,171,11,0,1980-01-06T03:07:00,0,0,0
1633357459,543000,421345,138275000,0,2178,0,76,637813700,0,0,649523904,0,0,0,7476,9999,0,0,198,11,0,1980-01-06T03:07:01,0,0,0
1633357460,710000,422511,138276000,0,2178,0,76,637813700,0,0,649523968,0,0,0,7484,9999,0,0,228,11,0,1980-01-06T03:07:02,0,0,0
1633357461,542000,423341,138277000,0,2178,0,76,637813700,0,0,649523968,0,0,0,7493,9999,0,0,250,11,0,1980-01-06T03:07:03,0,0,0
1633357462,517000,424315,138278000,0,2178,0,76,637813700,0,0,649523968,0,0,0,7501,9999,0,0,20,11,0,1980-01-06T03:07:04,0,0,0
1633357463,540000,425338,138279000,0,2178,0,76,637813700,0,0,649524032,0,0,0,7509,9999,0,0,47,11,0,1980-01-06T03:07:05,0,0,0
1633357464,551000,426348,138280000,0,2178,0,76,637813700,0,0,649524096,0,0,0,7518,9999,0,0,69,11,0,1980-01-06T03:07:06,0,0,0
1633357465,527000,427323,138281000,0,2178,0,76,637813700,0,0,649524160,0,0,0,7526,9999,0,0,95,11,0,1980-01-06T03:07:07,0,0,0
1633357466,694000,428489,138282000,0,2178,0,76,637813700,0,0,649524160,0,0,0,7534,9999,0,0,125,11,0,1980-01-06T03:07:08,0,0,0
1633357467,526000,429320,138283000,0,2178,0,76,637813700,0,0,649524160,0,0,0,7542,9999,0,0,147,11,0,1980-01-06T03:07:09,0,0,0
1633357468,550000,430342,138284000,0,2178,0,76,637813700,0,0,649524224,0,0,0,7551,9999,0,0,174,11,0,1980-01-06T03:07:10,0,0,0
1633357469,525000,431317,138285000,0,2178,0,76,637813700,0,0,649524224,0,0,0,7559,9999,0,0,200,11,0,1980-01-06T03:07:11,0,0,0
1633357470,536000,432327,138286000,0,2178,0,76,637813700,0,0,649524288,0,0,0,7567,9999,0,0,222,11,0,1980-01-06T03:07:12,0,0,0
1633357471,559000,433349,138287000,0,2178,0,76,637813700,0,0,649524288,0,0,0,7576,9999,0,0,249,11,0,1980-01-06T03:07:13,0,0,0
1633357472,727000,434515,138288000,0,2178,0,76,637813700,0,0,649524352,0,0,0,7584,9999,0,0,23,11,0,1980-01-06T03:07:14,0,0,0
1633357473,558000,435346,138289000,0,2178,0,76,637813700,0,0,649524352,0,0,0,7592,9999,0,0,46,11,0,1980-01-06T03:07:15,0,0,0
1633357474,533000,436320,138290000,0,2178,0,76,637813700,0,0,649524416,0,0,0,7600,9999,0,0,72,11,0,1980-01-06T03:07:16,0,0,0
1633357475,544000,437330,138291000,0,2178,0,76,637813700,0,0,649524416,0,0,0,7608,9999,0,0,94,11,0,1980-01-06T03:07:17,0,0,0
1633357476,568000,438353,138292000,0,2178,0,76,637813700,0,0,649524480,0,0,0,7617,9999,0,0,121,11,0,1980-01-06T03:07:18,0,0,0
1633357477,543000,439327,138293000,0,2178,0,76,637813700,0,0,649524480,0,0,0,7625,9999,0,0,147,11,0,1980-01-06T03:07:19,0,0,0
1633357478,710000,440493,138294000,0,2178,0,76,637813700,0,0,649524544,0,0,0,7633,9999,0,0,176,11,0,1980-01-06T03:07:20,0,0,0
1633357479,542000,441324,138295000,0,2178,0,76,637813700,0,0,649524608,0,0,0,7641,9999,0,0,199,11,0,1980-01-06T03:07:21,0,0,0
1633357480,564000,442345,138296000,0,2178,0,76,637813700,0,0,649524608,0,0,0,7649,9999,0,0,226,11,0,1980-01-06T03:07:22,0,0,0
1633357481,575000,443355,138297000,0,2178,0,76,637813700,0,0,649524672,0,0,0,7658,9999,0,0,248,11,0,1980-01-06T03:07:23,0,0,0
1633357482,551000,444330,138298000,0,2178,0,76,637813700,0,0,649524672,0,0,0,7666,9999,0,0,18,11,0,1980-01-06T03:07:24,0,0,0
1633357483,574000,445352,138299000,0,2178,0,76,637813700,0,0,649524736,0,0,0,7674,9999,0,0,45,11,0,1980-01-06T03:07:25,0,0,0
1633357484,693000,446470,138300000,0,2178,0,76,637813700,0,0,649524736,0,0,0,7682,9999,0,0,73,11,0,1980-01-06T03:07:26,0,0,0
1633357485,573000,447349,138301000,0,2178,0,76,637813700,0,0,649524800,0,0,0,7690,9999,0,0,97,11,0,1980-01-06T03:07:27,0,0,0
1633357486,548000,448323,138302000,0,2178,0,76,637813700,0,0,649524864,0,0,0,7698,9999,0,0,123,11,0,1980-01-06T03:07:28,0,0,0
1633357487,558000,449331,138303000,0,2178,0,76,637813700,0,0,649524864,0,0,0,7706,9999,0,0,145,11,0,1980-01-06T03:07:29,0,0,0
1633357488,581000,450354,138304000,0,2178,0,76,637813700,0,0,649524928,0,0,0,7715,9999,0,0,172,11,0,1980-01-06T03:07:30,0,0,0
1633357489,556000,451328,138305000,0,2178,0,76,637813700,0,0,649524928,0,0,0,7723,9999,0,0,197,11,0,1980-01-06T03:07:31,0,0,0
1633357490,723000,452494,138306000,0,2178,0,76,637813700,0,0,649524928,0,0,0,7731,9999,0,0,227,11,0,1980-01-06T03:07:32,0,0,0
1633357491,555000,453325,138307000,0,2178,0,76,637813700,0,0,649524992,0,0,0,7739,9999,0,0,250,11,0,1980-01-06T03:07:33,0,0,0
1633357492,567000,454335,138308000,0,2178,0,76,637813700,0,0,649525056,0,0,0,7747,9999,0,0,16,11,0,1980-01-06T03:07:34,0,0,0
1633357493,590000,455358,138309000,0,2178,0,76,637813700,0,0,649525056,0,0,0,7755,9999,0,0,43,11,0,1980-01-06T03:07:35,0,0,0
1633357494,565000,456332,138310000,0,2178,0,76,637813700,0,0,649525120,0,0,0,7763,9999,0,0,69,11,0,1980-01-06T03:07:36,0,0,0
1633357495,589000,457355,138311000,0,2178,0,76,637813700,0,0,649525120,0,0,0,7771,9999,0,0,95,11,0,1980-01-06T03:07:37,0,0,0
1633357496,757000,458521,138312000,0,2178,0,76,637813700,0,0,649525184,0,0,0,7779,9999,0,0,125,11,0,1980-01-06T03:07:38,0,0,0
1633357497,559000,459323,138313000,0,2178,0,76,637813700,0,0,649525248,0,0,0,7787,9999,0,0,147,11,0,1980-01-06T03:07:39,0,0,0
1633357498,578000,460341,138314000,0,2178,0,76,637813700,0,0,649525248,0,0,0,7795,9999,0,0,173,11,0,1980-01-06T03:07:40,0,0,0
1633357499,595000,461357,138315000,0,2178,0,76,637813700,0,0,649525312,0,0,0,7803,9999,0,0,199,11,0,1980-01-06T03:07:41,0,0,0
1633357500,563000,462324,138316000,0,2178,0,76,637813700,0,0,649525376,0,0,0,7811,9999,0,0,224,11,0,1980-01-06T03:07:42,0,0,0
1633357501,580000,463340,138317000,0,2178,0,76,637813700,0,0,649525376,0,0,0,7819,9999,0,0,250,11,0,1980-01-06T03:07:43,0,0,0
1633357502,748000,464507,138318000,0,2178,0,76,637813700,0,0,649525376,0,0,0,7827,9999,0,0,23,11,0,1980-01-06T03:07:44,0,0,0
1633357503,615000,465373,138319000,0,2178,0,76,637813700,0,0,649525440,0,0,0,7835,9999,0,0,46,11,0,1980-01-06T03:07:45,0,0,0
1633357504,570000,466327,138320000,0,2178,0,76,637813700,0,0,649525504,0,0,0,7843,9999,0,0,66,11,0,1980-01-06T03:07:46,0,0,0
1633357505,588000,467344,138321000,0,2178,0,76,637813700,0,0,649525504,0,0,0,7851,9999,0,0,92,11,0,1980-01-06T03:07:47,0,0,0
1633357506,606000,468360,138322000,0,2178,0,76,637813700,0,0,649525632,0,0,0,7859,9999,0,0,118,11,0,1980-01-06T03:07:48,0,0,0
1633357507,572000,469326,138323000,0,2178,0,76,637813700,0,0,649525632,0,0,0,7867,9999,0,0,143,11,0,1980-01-06T03:07:49,0,0,0
1633357508,751000,470504,138324000,0,2178,0,76,637813700,0,0,649525632,0,0,0,7875,9999,0,0,177,11,0,1980-01-06T03:07:50,0,0,0
1633357509,605000,471357,138325000,0,2178,0,76,637813700,0,0,649525696,0,0,0,7883,9999,0,0,195,11,0,1980-01-06T03:07:51,0,0,0
1633357510,573000,472324,138326000,0,2178,0,76,637813700,0,0,649525696,0,0,0,7891,9999,0,0,220,11,0,1980-01-06T03:07:52,0,0,0
1633357511,589000,473339,138327000,0,2178,0,76,637813700,0,0,649525760,0,0,0,7899,9999,0,0,246,11,0,1980-01-06T03:07:53,0,0,0
1633357512,607000,474356,138328000,0,2178,0,76,637813700,0,0,649525824,0,0,0,7907,9999,0,0,16,11,0,1980-01-06T03:07:54,0,0,0
1633357513,574000,475322,138329000,0,2178,0,76,637813700,0,0,649525824,0,0,0,7914,9999,0,0,41,11,0,1980-01-06T03:07:55,0,0,0
1633357514,743000,476490,138330000,0,2178,0,76,637813700,0,0,649525824,0,0,0,7922,9999,0,0,70,11,0,1980-01-06T03:07:56,0,0,0
1633357515,610000,477356,138331000,0,2178,0,76,637813700,0,0,649525952,0,0,0,7930,9999,0,0,93,11,0,1980-01-06T03:07:57,0,0,0
1633357516,578000,478323,138332000,0,2178,0,76,637813700,0,0,649525952,0,0,0,7938,9999,0,0,118,11,0,1980-01-06T03:07:58,0,0,0
1633357517,596000,479340,138333000,0,2178,0,76,637813700,0,0,649526016,0,0,0,7946,9999,0,0,144,11,0,1980-01-06T03:07:59,0,0,0
1633357518,613000,480356,138334000,0,2178,0,76,637813700,0,0,649526080,0,0,0,7954,9999,0,0,170,11,0,1980-01-06T03:08:00,0,0,0
1633357519,581000,481323,138335000,0,2178,0,76,637813700,0,0,649526080,0,0,0,7962,9999,0,0,195,11,0,1980-01-06T03:08:01,0,0,0
1633357520,750000,482491,138336000,0,2178,0,76,637813700,0,0,649526144,0,0,0,7970,9999,0,0,224,11,0,1980-01-06T03:08:02,0,0,0
1633357521,617000,483357,138337000,0,2178,0,76,637813700,0,0,649526144,0,0,0,7977,9999,0,0,247,11,0,1980-01-06T03:08:03,0,0,0
1633357522,586000,484324,138338000,0,2178,0,76,637813700,0,0,649526272,0,0,0,7985,9999,0,0,16,11,0,1980-01-06T03:08:04,0,0,0
1633357523,603000,485341,138339000,0,2178,0,76,637813700,0,0,649526272,0,0,0,7993,9999,0,0,42,11,0,1980-01-06T03:08:05,0,0,0
1633357524,621000,486358,138340000,0,2178,0,76,637813700,0,0,649526272,0,0,0,8001,9999,0,0,67,11,0,1980-01-06T03:08:06,0,0,0
1633357525,588000,487324,138341000,0,2178,0,76,637813700,0,0,649526272,0,0,0,8009,9999,0,0,91,11,0,1980-01-06T03:08:07,0,0,0
1633357526,757000,488492,138342000,0,2178,0,76,637813700,0,0,649526336,0,0,0,8016,9999,0,0,119,11,0,1980-01-06T03:08:08,0,0,0
